[{"place":"Alabama\\Autauga","number":113862,"lon":-86.6456,"lat":32.5401},{"place":"Alabama\\Baldwin","number":583370,"lon":-87.7263,"lat":30.7383},{"place":"Alabama\\Blount","number":7400,"lon":-86.5627,"lat":33.9904},{"place":"Alabama\\Bullock","number":41747,"lon":-85.7168,"lat":32.1063},{"place":"Alabama\\Calhoun","number":34600,"lon":-85.8296,"lat":33.7762},{"place":"Alabama\\Chambers","number":5950,"lon":-85.3949,"lat":32.9163},{"place":"Alabama\\Cherokee","number":340717,"lon":-85.6042,"lat":34.1915},{"place":"Alabama\\Chilton","number":20813,"lon":-86.7156,"lat":32.8516},{"place":"Alabama\\Coffee","number":261298,"lon":-85.9944,"lat":31.3985},{"place":"Alabama\\Colbert","number":1112828,"lon":-87.811,"lat":34.7028},{"place":"Alabama\\Conecuh","number":57714,"lon":-86.9907,"lat":31.4358},{"place":"Alabama\\Covington","number":20600,"lon":-86.4566,"lat":31.2597},{"place":"Alabama\\Crenshaw","number":5018,"lon":-86.3196,"lat":31.7359},{"place":"Alabama\\Cullman","number":63730,"lon":-86.8654,"lat":34.1382},{"place":"Alabama\\Dale","number":54933,"lon":-85.6191,"lat":31.4309},{"place":"Alabama\\Dallas","number":294058,"lon":-87.0977,"lat":32.3267},{"place":"Alabama\\DeKalb","number":128387,"lon":-85.8123,"lat":34.4544},{"place":"Alabama\\Elmore","number":67507,"lon":-86.1542,"lat":32.5989},{"place":"Alabama\\Escambia","number":214672,"lon":-87.1575,"lat":31.1334},{"place":"Alabama\\Franklin","number":45218,"lon":-87.8456,"lat":34.4434},{"place":"Alabama\\Geneva","number":129050,"lon":-85.8444,"lat":31.0999},{"place":"Alabama\\Greene","number":12400,"lon":-87.9481,"lat":32.8657},{"place":"Alabama\\Hale","number":27288,"lon":-87.6222,"lat":32.7649},{"place":"Alabama\\Henry","number":87224,"lon":-85.2541,"lat":31.516},{"place":"Alabama\\Houston","number":49789,"lon":-85.3154,"lat":31.1525},{"place":"Alabama\\Jackson","number":224703,"lon":-85.9978,"lat":34.7768},{"place":"Alabama\\Lauderdale","number":856751,"lon":-87.6542,"lat":34.9041},{"place":"Alabama\\Lawrence","number":1057844,"lon":-87.3056,"lat":34.5248},{"place":"Alabama\\Lee","number":16176,"lon":-85.3553,"lat":32.6099},{"place":"Alabama\\Limestone","number":1977674,"lon":-86.9737,"lat":34.8122},{"place":"Alabama\\Madison","number":1118941,"lon":-86.5431,"lat":34.7652},{"place":"Alabama\\Marengo","number":18950,"lon":-87.7783,"lat":32.2512},{"place":"Alabama\\Marshall","number":24308,"lon":-86.3061,"lat":34.3703},{"place":"Alabama\\Mobile","number":91808,"lon":-88.207,"lat":30.8136},{"place":"Alabama\\Monroe","number":47246,"lon":-87.364,"lat":31.5722},{"place":"Alabama\\Montgomery","number":42807,"lon":-86.2071,"lat":32.2254},{"place":"Alabama\\Morgan","number":230490,"lon":-86.8479,"lat":34.458},{"place":"Alabama\\Perry","number":168280,"lon":-87.2841,"lat":32.6376},{"place":"Alabama\\Pickens","number":63396,"lon":-88.0869,"lat":33.2804},{"place":"Alabama\\Pike","number":28044,"lon":-85.9418,"lat":31.8055},{"place":"Alabama\\Randolph","number":7400,"lon":-85.4566,"lat":33.2942},{"place":"Alabama\\Russell","number":123414,"lon":-85.1941,"lat":32.2952},{"place":"Alabama\\Shelby","number":58627,"lon":-86.6651,"lat":33.2676},{"place":"Alabama\\Sumter","number":88530,"lon":-88.1921,"lat":32.5896},{"place":"Alabama\\Talladega","number":40560,"lon":-86.1631,"lat":33.3865},{"place":"Alabama\\Tuscaloosa","number":75626,"lon":-87.517,"lat":33.2944},{"place":"Alabama\\Washington","number":5804,"lon":-88.2056,"lat":31.4132},{"place":"Arizona\\Pinal","number":97122,"lon":-111.3519,"lat":32.9067},{"place":"Arkansas\\Arkansas","number":1781675,"lon":-91.3733,"lat":34.2967},{"place":"Arkansas\\Ashley","number":337015,"lon":-91.7719,"lat":33.1865},{"place":"Arkansas\\Benton","number":35120,"lon":-94.264,"lat":36.3417},{"place":"Arkansas\\Chicot","number":969105,"lon":-91.2963,"lat":33.2609},{"place":"Arkansas\\Clay","number":391226,"lon":-90.425,"lat":36.3718},{"place":"Arkansas\\Conway","number":221756,"lon":-92.6984,"lat":35.2537},{"place":"Arkansas\\Craighead","number":442543,"lon":-90.643,"lat":35.8292},{"place":"Arkansas\\Crawford","number":300898,"lon":-94.2518,"lat":35.5844},{"place":"Arkansas\\Crittenden","number":1865149,"lon":-90.3015,"lat":35.2014},{"place":"Arkansas\\Cross","number":1073973,"lon":-90.7755,"lat":35.2892},{"place":"Arkansas\\Desha","number":500774,"lon":-91.2715,"lat":33.8323},{"place":"Arkansas\\Drew","number":77757,"lon":-91.7233,"lat":33.5864},{"place":"Arkansas\\Faulkner","number":62467,"lon":-92.3309,"lat":35.1422},{"place":"Arkansas\\Grant","number":4080,"lon":-92.4254,"lat":34.2975},{"place":"Arkansas\\Greene","number":379623,"lon":-90.5598,"lat":36.1162},{"place":"Arkansas\\Independence","number":157391,"lon":-91.5786,"lat":35.7354},{"place":"Arkansas\\Jackson","number":1099190,"lon":-91.2232,"lat":35.5912},{"place":"Arkansas\\Jefferson","number":1100044,"lon":-91.9318,"lat":34.2759},{"place":"Arkansas\\Johnson","number":72715,"lon":-93.4714,"lat":35.5632},{"place":"Arkansas\\Lafayette","number":377174,"lon":-93.6067,"lat":33.2393},{"place":"Arkansas\\Lawrence","number":323294,"lon":-91.1179,"lat":36.0375},{"place":"Arkansas\\Lee","number":1584755,"lon":-90.774,"lat":34.7829},{"place":"Arkansas\\Lincoln","number":448059,"lon":-91.7261,"lat":33.9634},{"place":"Arkansas\\Little River","number":304467,"lon":-94.2432,"lat":33.7094},{"place":"Arkansas\\Logan","number":80900,"lon":-93.7243,"lat":35.2106},{"place":"Arkansas\\Lonoke","number":764868,"lon":-91.8911,"lat":34.7568},{"place":"Arkansas\\Miller","number":993628,"lon":-93.8957,"lat":33.3189},{"place":"Arkansas\\Mississippi","number":1543188,"lon":-90.0554,"lat":35.7557},{"place":"Arkansas\\Monroe","number":1626204,"lon":-91.2086,"lat":34.6758},{"place":"Arkansas\\Perry","number":40872,"lon":-92.9415,"lat":34.9423},{"place":"Arkansas\\Phillips","number":1908378,"lon":-90.8502,"lat":34.4359},{"place":"Arkansas\\Poinsett","number":1001671,"lon":-90.6674,"lat":35.5678},{"place":"Arkansas\\Pope","number":177535,"lon":-93.0334,"lat":35.4408},{"place":"Arkansas\\Prairie","number":394632,"lon":-91.5539,"lat":34.8317},{"place":"Arkansas\\Pulaski","number":259916,"lon":-92.3127,"lat":34.7718},{"place":"Arkansas\\Randolph","number":95060,"lon":-91.0407,"lat":36.3458},{"place":"Arkansas\\St. Francis","number":1178488,"lon":-90.7606,"lat":35.0155},{"place":"Arkansas\\Sebastian","number":17904,"lon":-94.2804,"lat":35.2038},{"place":"Arkansas\\Washington","number":25400,"lon":-94.2217,"lat":35.9761},{"place":"Arkansas\\White","number":173818,"lon":-91.7456,"lat":35.2527},{"place":"Arkansas\\Woodruff","number":982018,"lon":-91.2464,"lat":35.1819},{"place":"Arkansas\\Yell","number":26055,"lon":-93.4137,"lat":35.0046},{"place":"California\\Colusa","number":1053551,"lon":-122.2415,"lat":39.1827},{"place":"California\\Fresno","number":3145778,"lon":-119.641,"lat":36.7537},{"place":"California\\Kern","number":2800888,"lon":-118.7287,"lat":35.3416},{"place":"California\\Kings","number":4020781,"lon":-119.8055,"lat":36.0664},{"place":"California\\Lassen","number":48059,"lon":-120.6007,"lat":40.6875},{"place":"California\\Madera","number":238995,"lon":-119.7624,"lat":37.2136},{"place":"California\\Merced","number":2020190,"lon":-120.7211,"lat":37.1852},{"place":"California\\Modoc","number":715576,"lon":-120.7383,"lat":41.6085},{"place":"California\\Monterey","number":69696,"lon":-121.2124,"lat":36.2088},{"place":"California\\San Bernardino","number":4668,"lon":-116.1729,"lat":34.8452},{"place":"California\\San Joaquin","number":1948091,"lon":-121.2678,"lat":37.9407},{"place":"California\\Solano","number":1177293,"lon":-121.9219,"lat":38.2789},{"place":"California\\Sonoma","number":268,"lon":-122.8763,"lat":38.5331},{"place":"California\\Stanislaus","number":285709,"lon":-120.9973,"lat":37.5578},{"place":"California\\Sutter","number":602420,"lon":-121.6902,"lat":39.0345},{"place":"California\\Tulare","number":3000727,"lon":-118.792,"lat":36.2181},{"place":"California\\Yolo","number":2450301,"lon":-121.9048,"lat":38.6917},{"place":"Colorado\\Adams","number":6306838,"lon":-104.3365,"lat":39.8803},{"place":"Colorado\\Arapahoe","number":1002420,"lon":-104.3394,"lat":39.6527},{"place":"Colorado\\Baca","number":4710723,"lon":-102.564,"lat":37.3127},{"place":"Colorado\\Bent","number":241991,"lon":-103.0792,"lat":37.943},{"place":"Colorado\\Boulder","number":119429,"lon":-105.3542,"lat":40.0936},{"place":"Colorado\\Cheyenne","number":4562942,"lon":-102.6116,"lat":38.8264},{"place":"Colorado\\Crowley","number":6756,"lon":-103.7832,"lat":38.3229},{"place":"Colorado\\Dolores","number":177717,"lon":-108.5002,"lat":37.7555},{"place":"Colorado\\Douglas","number":14037,"lon":-104.925,"lat":39.3249},{"place":"Colorado\\Elbert","number":724589,"lon":-104.1336,"lat":39.2876},{"place":"Colorado\\El Paso","number":19331,"lon":-104.5175,"lat":38.825},{"place":"Colorado\\Huerfano","number":1488,"lon":-104.9609,"lat":37.6854},{"place":"Colorado\\Kiowa","number":3559798,"lon":-102.7448,"lat":38.4221},{"place":"Colorado\\Kit Carson","number":7913591,"lon":-102.607,"lat":39.3107},{"place":"Colorado\\Las Animas","number":41135,"lon":-104.0498,"lat":37.3032},{"place":"Colorado\\Lincoln","number":4516495,"lon":-103.515,"lat":38.9902},{"place":"Colorado\\Logan","number":3996850,"lon":-103.1089,"lat":40.73},{"place":"Colorado\\Moffat","number":137793,"lon":-108.2035,"lat":40.6224},{"place":"Colorado\\Montezuma","number":350212,"lon":-108.6086,"lat":37.3444},{"place":"Colorado\\Montrose","number":38263,"lon":-108.2772,"lat":38.3952},{"place":"Colorado\\Morgan","number":2182636,"lon":-103.8052,"lat":40.2724},{"place":"Colorado\\Phillips","number":3456790,"lon":-102.3661,"lat":40.5969},{"place":"Colorado\\Prowers","number":2761330,"lon":-102.3978,"lat":37.9459},{"place":"Colorado\\Pueblo","number":17049,"lon":-104.507,"lat":38.1684},{"place":"Colorado\\Sedgwick","number":2496630,"lon":-102.359,"lat":40.8778},{"place":"Colorado\\Washington","number":7333185,"lon":-103.1988,"lat":39.977},{"place":"Colorado\\Weld","number":4568285,"lon":-104.3899,"lat":40.5623},{"place":"Connecticut\\New Haven","number":240,"lon":-72.9274,"lat":41.412},{"place":"Delaware\\Kent","number":2143443,"lon":-75.5739,"lat":39.0877},{"place":"Delaware\\New Castle","number":807048,"lon":-75.6552,"lat":39.5834},{"place":"Delaware\\Sussex","number":2938325,"lon":-75.4067,"lat":38.6657},{"place":"Florida\\Calhoun","number":6678,"lon":-85.2136,"lat":30.4147},{"place":"Florida\\Escambia","number":206579,"lon":-87.3966,"lat":30.721},{"place":"Florida\\Hamilton","number":20000,"lon":-82.9354,"lat":30.4873},{"place":"Florida\\Jackson","number":51070,"lon":-85.227,"lat":30.7992},{"place":"Florida\\Santa Rosa","number":343144,"lon":-87.0301,"lat":30.7456},{"place":"Florida\\Walton","number":12232,"lon":-86.1718,"lat":30.6722},{"place":"Georgia\\Appling","number":67529,"lon":-82.3103,"lat":31.7441},{"place":"Georgia\\Baker","number":93954,"lon":-84.4653,"lat":31.3102},{"place":"Georgia\\Bartow","number":92368,"lon":-84.8553,"lat":34.2298},{"place":"Georgia\\Ben Hill","number":29231,"lon":-83.2547,"lat":31.7606},{"place":"Georgia\\Berrien","number":46926,"lon":-83.2432,"lat":31.267},{"place":"Georgia\\Bibb","number":53192,"lon":-83.7174,"lat":32.8138},{"place":"Georgia\\Bleckley","number":183266,"lon":-83.3584,"lat":32.4355},{"place":"Georgia\\Brooks","number":155080,"lon":-83.6001,"lat":30.8379},{"place":"Georgia\\Bulloch","number":100979,"lon":-81.7482,"lat":32.4025},{"place":"Georgia\\Burke","number":339165,"lon":-82.0054,"lat":33.0623},{"place":"Georgia\\Butts","number":7010,"lon":-83.9619,"lat":33.2838},{"place":"Georgia\\Calhoun","number":305640,"lon":-84.642,"lat":31.5161},{"place":"Georgia\\Candler","number":101435,"lon":-82.0876,"lat":32.4052},{"place":"Georgia\\Clay","number":188119,"lon":-84.9907,"lat":31.6152},{"place":"Georgia\\Coffee","number":58108,"lon":-82.8875,"lat":31.5372},{"place":"Georgia\\Colquitt","number":193263,"lon":-83.7903,"lat":31.1719},{"place":"Georgia\\Columbia","number":2515,"lon":-82.2741,"lat":33.5458},{"place":"Georgia\\Coweta","number":38465,"lon":-84.7774,"lat":33.3437},{"place":"Georgia\\Crawford","number":42442,"lon":-83.994,"lat":32.7239},{"place":"Georgia\\Crisp","number":106437,"lon":-83.8083,"lat":31.9166},{"place":"Georgia\\Decatur","number":161045,"lon":-84.5844,"lat":30.8742},{"place":"Georgia\\Dodge","number":86190,"lon":-83.1974,"lat":32.1692},{"place":"Georgia\\Dooly","number":347048,"lon":-83.8294,"lat":32.1481},{"place":"Georgia\\Dougherty","number":3420,"lon":-84.2358,"lat":31.5184},{"place":"Georgia\\Early","number":240176,"lon":-84.9189,"lat":31.3143},{"place":"Georgia\\Effingham","number":50000,"lon":-81.3402,"lat":32.3718},{"place":"Georgia\\Elbert","number":59817,"lon":-82.8386,"lat":34.1122},{"place":"Georgia\\Emanuel","number":145702,"lon":-82.3202,"lat":32.6025},{"place":"Georgia\\Evans","number":16722,"lon":-81.8915,"lat":32.1623},{"place":"Georgia\\Franklin","number":33526,"lon":-83.2294,"lat":34.3767},{"place":"Georgia\\Glascock","number":29220,"lon":-82.6267,"lat":33.2248},{"place":"Georgia\\Gordon","number":26092,"lon":-84.8919,"lat":34.4917},{"place":"Georgia\\Grady","number":40132,"lon":-84.243,"lat":30.8702},{"place":"Georgia\\Hall","number":22698,"lon":-83.8293,"lat":34.3086},{"place":"Georgia\\Harris","number":7292,"lon":-84.9157,"lat":32.7309},{"place":"Georgia\\Hart","number":103535,"lon":-82.9658,"lat":34.3508},{"place":"Georgia\\Houston","number":168929,"lon":-83.6929,"lat":32.4594},{"place":"Georgia\\Irwin","number":86089,"lon":-83.3089,"lat":31.6005},{"place":"Georgia\\Jackson","number":12985,"lon":-83.5638,"lat":34.1289},{"place":"Georgia\\Jasper","number":15000,"lon":-83.6946,"lat":33.3141},{"place":"Georgia\\Jeff Davis","number":39000,"lon":-82.6531,"lat":31.7954},{"place":"Georgia\\Jefferson","number":428234,"lon":-82.4271,"lat":33.0604},{"place":"Georgia\\Jenkins","number":24148,"lon":-81.9726,"lat":32.7966},{"place":"Georgia\\Johnson","number":91447,"lon":-82.6833,"lat":32.7095},{"place":"Georgia\\Laurens","number":318073,"lon":-82.9435,"lat":32.4631},{"place":"Georgia\\Lee","number":467467,"lon":-84.1738,"lat":31.7726},{"place":"Georgia\\Macon","number":262517,"lon":-84.0575,"lat":32.3458},{"place":"Georgia\\Madison","number":38433,"lon":-83.2089,"lat":34.1292},{"place":"Georgia\\Marion","number":12770,"lon":-84.5339,"lat":32.3456},{"place":"Georgia\\Meriwether","number":10962,"lon":-84.6998,"lat":33.0353},{"place":"Georgia\\Miller","number":188284,"lon":-84.7424,"lat":31.1539},{"place":"Georgia\\Mitchell","number":50672,"lon":-84.2132,"lat":31.2122},{"place":"Georgia\\Montgomery","number":102150,"lon":-82.5408,"lat":32.1719},{"place":"Georgia\\Morgan","number":143088,"lon":-83.4974,"lat":33.5872},{"place":"Georgia\\Newton","number":72570,"lon":-83.8565,"lat":33.5557},{"place":"Georgia\\Oconee","number":10632,"lon":-83.4444,"lat":33.8302},{"place":"Georgia\\Oglethorpe","number":81930,"lon":-83.0917,"lat":33.8773},{"place":"Georgia\\Peach","number":325397,"lon":-83.8337,"lat":32.5743},{"place":"Georgia\\Pierce","number":91822,"lon":-82.238,"lat":31.3539},{"place":"Georgia\\Pike","number":19304,"lon":-84.4052,"lat":33.0799},{"place":"Georgia\\Polk","number":61602,"lon":-85.1955,"lat":33.9968},{"place":"Georgia\\Pulaski","number":258586,"lon":-83.5174,"lat":32.228},{"place":"Georgia\\Randolph","number":327874,"lon":-84.7604,"lat":31.7527},{"place":"Georgia\\Richmond","number":4340,"lon":-82.0833,"lat":33.36},{"place":"Georgia\\Schley","number":24499,"lon":-84.3391,"lat":32.2546},{"place":"Georgia\\Screven","number":177244,"lon":-81.6171,"lat":32.7569},{"place":"Georgia\\Seminole","number":161600,"lon":-84.8802,"lat":30.9337},{"place":"Georgia\\Spalding","number":23565,"lon":-84.2965,"lat":33.2539},{"place":"Georgia\\Stephens","number":5250,"lon":-83.2941,"lat":34.5544},{"place":"Georgia\\Stewart","number":26360,"lon":-84.8507,"lat":32.0706},{"place":"Georgia\\Sumter","number":525270,"lon":-84.2261,"lat":32.0393},{"place":"Georgia\\Tattnall","number":78787,"lon":-82.0706,"lat":32.0455},{"place":"Georgia\\Taylor","number":139683,"lon":-84.2487,"lat":32.5512},{"place":"Georgia\\Telfair","number":30789,"lon":-82.9638,"lat":31.9214},{"place":"Georgia\\Terrell","number":397753,"lon":-84.4517,"lat":31.7699},{"place":"Georgia\\Thomas","number":149740,"lon":-83.9364,"lat":30.8588},{"place":"Georgia\\Tift","number":94460,"lon":-83.55,"lat":31.4516},{"place":"Georgia\\Toombs","number":82466,"lon":-82.3477,"lat":32.1045},{"place":"Georgia\\Turner","number":100677,"lon":-83.6565,"lat":31.7159},{"place":"Georgia\\Twiggs","number":16450,"lon":-83.452,"lat":32.6733},{"place":"Georgia\\Walker","number":120630,"lon":-85.2984,"lat":34.7232},{"place":"Georgia\\Walton","number":39966,"lon":-83.7389,"lat":33.7748},{"place":"Georgia\\Ware","number":9545,"lon":-82.4574,"lat":31.0303},{"place":"Georgia\\Warren","number":36265,"lon":-82.6885,"lat":33.4074},{"place":"Georgia\\Washington","number":309249,"lon":-82.8117,"lat":32.9733},{"place":"Georgia\\Wayne","number":119760,"lon":-81.9308,"lat":31.5523},{"place":"Georgia\\Webster","number":42422,"lon":-84.5743,"lat":32.0391},{"place":"Georgia\\Wheeler","number":124450,"lon":-82.7455,"lat":32.1115},{"place":"Georgia\\Whitfield","number":5484,"lon":-84.9716,"lat":34.797},{"place":"Georgia\\Wilcox","number":98484,"lon":-83.4709,"lat":31.9695},{"place":"Georgia\\Wilkinson","number":57224,"lon":-83.195,"lat":32.8011},{"place":"Georgia\\Worth","number":231322,"lon":-83.8777,"lat":31.5463},{"place":"Idaho\\Ada","number":549728,"lon":-116.2351,"lat":43.4466},{"place":"Idaho\\Adams","number":933,"lon":-116.4445,"lat":44.8929},{"place":"Idaho\\Bannock","number":1127078,"lon":-112.2077,"lat":42.6632},{"place":"Idaho\\Bear Lake","number":57679,"lon":-111.3381,"lat":42.2869},{"place":"Idaho\\Benewah","number":1644067,"lon":-116.6406,"lat":47.205},{"place":"Idaho\\Bingham","number":9934333,"lon":-112.4066,"lat":43.2145},{"place":"Idaho\\Boundary","number":718412,"lon":-116.4502,"lat":48.7576},{"place":"Idaho\\Butte","number":114697,"lon":-113.1687,"lat":43.7218},{"place":"Idaho\\Canyon","number":3315133,"lon":-116.7067,"lat":43.6199},{"place":"Idaho\\Caribou","number":962110,"lon":-111.5624,"lat":42.7786},{"place":"Idaho\\Cassia","number":4255365,"lon":-113.6181,"lat":42.2889},{"place":"Idaho\\Clearwater","number":399413,"lon":-115.6238,"lat":46.662},{"place":"Idaho\\Elmore","number":1144602,"lon":-115.4664,"lat":43.3551},{"place":"Idaho\\Franklin","number":668276,"lon":-111.8197,"lat":42.18},{"place":"Idaho\\Fremont","number":292969,"lon":-111.4874,"lat":44.2314},{"place":"Idaho\\Gem","number":218083,"lon":-116.3815,"lat":44.065},{"place":"Idaho\\Gooding","number":587340,"lon":-114.8165,"lat":42.9721},{"place":"Idaho\\Idaho","number":4617013,"lon":-115.4603,"lat":45.8317},{"place":"Idaho\\Jefferson","number":263079,"lon":-112.3131,"lat":43.8207},{"place":"Idaho\\Jerome","number":1001799,"lon":-114.2777,"lat":42.6922},{"place":"Idaho\\Kootenai","number":632096,"lon":-116.6851,"lat":47.6591},{"place":"Idaho\\Latah","number":5545307,"lon":-116.6954,"lat":46.8057},{"place":"Idaho\\Lewis","number":4947590,"lon":-116.4137,"lat":46.2297},{"place":"Idaho\\Lincoln","number":239732,"lon":-114.143,"lat":43.0003},{"place":"Idaho\\Madison","number":153124,"lon":-111.6595,"lat":43.779},{"place":"Idaho\\Nez Perce","number":4880881,"lon":-116.7332,"lat":46.3191},{"place":"Idaho\\Oneida","number":495482,"lon":-112.5502,"lat":42.1971},{"place":"Idaho\\Owyhee","number":954883,"lon":-116.177,"lat":42.5887},{"place":"Idaho\\Payette","number":468121,"lon":-116.7518,"lat":44.0032},{"place":"Idaho\\Power","number":3721221,"lon":-112.8419,"lat":42.6937},{"place":"Idaho\\Teton","number":126290,"lon":-111.2198,"lat":43.7541},{"place":"Idaho\\Twin Falls","number":2506310,"lon":-114.6885,"lat":42.366},{"place":"Idaho\\Washington","number":483593,"lon":-116.7747,"lat":44.4512},{"place":"Illinois\\Adams","number":450317,"lon":-91.1868,"lat":39.9884},{"place":"Illinois\\Alexander","number":352193,"lon":-89.3414,"lat":37.2066},{"place":"Illinois\\Bond","number":965051,"lon":-89.4458,"lat":38.8859},{"place":"Illinois\\Boone","number":243147,"lon":-88.821,"lat":42.3298},{"place":"Illinois\\Brown","number":60324,"lon":-90.7523,"lat":39.9595},{"place":"Illinois\\Bureau","number":168568,"lon":-89.5194,"lat":41.4085},{"place":"Illinois\\Calhoun","number":50692,"lon":-90.6764,"lat":39.1621},{"place":"Illinois\\Carroll","number":119878,"lon":-89.9327,"lat":42.0751},{"place":"Illinois\\Cass","number":60723,"lon":-90.2489,"lat":39.9682},{"place":"Illinois\\Champaign","number":196729,"lon":-88.2054,"lat":40.1304},{"place":"Illinois\\Christian","number":90923,"lon":-89.2818,"lat":39.546},{"place":"Illinois\\Clark","number":210899,"lon":-87.7961,"lat":39.3329},{"place":"Illinois\\Clay","number":839089,"lon":-88.4956,"lat":38.7487},{"place":"Illinois\\Clinton","number":2000172,"lon":-89.4268,"lat":38.601},{"place":"Illinois\\Coles","number":76404,"lon":-88.2268,"lat":39.5194},{"place":"Illinois\\Crawford","number":364351,"lon":-87.764,"lat":39.0027},{"place":"Illinois\\Cumberland","number":109895,"lon":-88.2459,"lat":39.2748},{"place":"Illinois\\De Kalb","number":533049,"lon":-88.7641,"lat":41.8983},{"place":"Illinois\\Douglas","number":67259,"lon":-88.2231,"lat":39.7646},{"place":"Illinois\\Edgar","number":101853,"lon":-87.7475,"lat":39.6726},{"place":"Illinois\\Edwards","number":324788,"lon":-88.0542,"lat":38.4075},{"place":"Illinois\\Effingham","number":629978,"lon":-88.5918,"lat":39.0595},{"place":"Illinois\\Fayette","number":592163,"lon":-89.0352,"lat":39.0004},{"place":"Illinois\\Ford","number":321955,"lon":-88.2211,"lat":40.5874},{"place":"Illinois\\Franklin","number":688930,"lon":-88.9281,"lat":37.9896},{"place":"Illinois\\Fulton","number":189973,"lon":-90.2076,"lat":40.4724},{"place":"Illinois\\Gallatin","number":450552,"lon":-88.234,"lat":37.7647},{"place":"Illinois\\Greene","number":160868,"lon":-90.3982,"lat":39.3584},{"place":"Illinois\\Grundy","number":35593,"lon":-88.4243,"lat":41.2861},{"place":"Illinois\\Hamilton","number":842032,"lon":-88.5449,"lat":38.0784},{"place":"Illinois\\Hancock","number":234259,"lon":-91.1608,"lat":40.4076},{"place":"Illinois\\Henderson","number":73056,"lon":-90.9302,"lat":40.8138},{"place":"Illinois\\Henry","number":65060,"lon":-90.1234,"lat":41.351},{"place":"Illinois\\Iroquois","number":411757,"lon":-87.8263,"lat":40.7473},{"place":"Illinois\\Jackson","number":1101867,"lon":-89.383,"lat":37.7874},{"place":"Illinois\\Jasper","number":349455,"lon":-88.1606,"lat":39.013},{"place":"Illinois\\Jefferson","number":1099308,"lon":-88.9264,"lat":38.294},{"place":"Illinois\\Jersey","number":131849,"lon":-90.3628,"lat":39.0856},{"place":"Illinois\\Jo Daviess","number":58174,"lon":-90.2081,"lat":42.3691},{"place":"Illinois\\Johnson","number":34190,"lon":-88.884,"lat":37.4687},{"place":"Illinois\\Kane","number":194257,"lon":-88.4288,"lat":41.9424},{"place":"Illinois\\Kankakee","number":448802,"lon":-87.8637,"lat":41.1389},{"place":"Illinois\\Kendall","number":15878,"lon":-88.432,"lat":41.5943},{"place":"Illinois\\Knox","number":55654,"lon":-90.2162,"lat":40.9287},{"place":"Illinois\\Lake","number":62694,"lon":-88.0067,"lat":42.331},{"place":"Illinois\\La Salle","number":262500,"lon":-88.8871,"lat":41.3444},{"place":"Illinois\\Lawrence","number":692055,"lon":-87.7339,"lat":38.7196},{"place":"Illinois\\Lee","number":143725,"lon":-89.297,"lat":41.7495},{"place":"Illinois\\Livingston","number":628220,"lon":-88.5598,"lat":40.8859},{"place":"Illinois\\Logan","number":67699,"lon":-89.3631,"lat":40.1231},{"place":"Illinois\\McDonough","number":59541,"lon":-90.6779,"lat":40.4497},{"place":"Illinois\\McHenry","number":299352,"lon":-88.4529,"lat":42.3304},{"place":"Illinois\\McLean","number":83053,"lon":-88.8501,"lat":40.4849},{"place":"Illinois\\Macon","number":47812,"lon":-88.9628,"lat":39.859},{"place":"Illinois\\Macoupin","number":335930,"lon":-89.9258,"lat":39.2662},{"place":"Illinois\\Madison","number":1392400,"lon":-89.9057,"lat":38.8311},{"place":"Illinois\\Marion","number":951266,"lon":-88.9246,"lat":38.649},{"place":"Illinois\\Marshall","number":87074,"lon":-89.3417,"lat":41.033},{"place":"Illinois\\Mason","number":206335,"lon":-89.9162,"lat":40.237},{"place":"Illinois\\Massac","number":202634,"lon":-88.7156,"lat":37.2315},{"place":"Illinois\\Menard","number":105172,"lon":-89.7985,"lat":40.0271},{"place":"Illinois\\Mercer","number":34564,"lon":-90.7352,"lat":41.2027},{"place":"Illinois\\Monroe","number":1818374,"lon":-90.1881,"lat":38.2751},{"place":"Illinois\\Montgomery","number":648269,"lon":-89.4802,"lat":39.231},{"place":"Illinois\\Morgan","number":113163,"lon":-90.2,"lat":39.7117},{"place":"Illinois\\Moultrie","number":22671,"lon":-88.624,"lat":39.6384},{"place":"Illinois\\Ogle","number":273516,"lon":-89.3212,"lat":42.0461},{"place":"Illinois\\Peoria","number":167264,"lon":-89.7624,"lat":40.7861},{"place":"Illinois\\Perry","number":1243777,"lon":-89.3677,"lat":38.0863},{"place":"Illinois\\Piatt","number":68493,"lon":-88.5956,"lat":40.0083},{"place":"Illinois\\Pike","number":272955,"lon":-90.8928,"lat":39.6187},{"place":"Illinois\\Pope","number":50051,"lon":-88.5616,"lat":37.4252},{"place":"Illinois\\Pulaski","number":307197,"lon":-89.132,"lat":37.2333},{"place":"Illinois\\Putnam","number":35447,"lon":-89.2899,"lat":41.2052},{"place":"Illinois\\Randolph","number":2552780,"lon":-89.8239,"lat":38.0504},{"place":"Illinois\\Richland","number":713362,"lon":-88.092,"lat":38.7122},{"place":"Illinois\\Rock Island","number":24477,"lon":-90.5653,"lat":41.4701},{"place":"Illinois\\St. Clair","number":1607006,"lon":-89.9316,"lat":38.4649},{"place":"Illinois\\Saline","number":181306,"lon":-88.5447,"lat":37.7549},{"place":"Illinois\\Sangamon","number":73142,"lon":-89.6578,"lat":39.7588},{"place":"Illinois\\Schuyler","number":94110,"lon":-90.6119,"lat":40.1554},{"place":"Illinois\\Scott","number":175293,"lon":-90.4828,"lat":39.6436},{"place":"Illinois\\Shelby","number":440345,"lon":-88.8103,"lat":39.3893},{"place":"Illinois\\Stark","number":22483,"lon":-89.7968,"lat":41.0933},{"place":"Illinois\\Stephenson","number":217413,"lon":-89.6556,"lat":42.3542},{"place":"Illinois\\Tazewell","number":158290,"lon":-89.5131,"lat":40.5082},{"place":"Illinois\\Union","number":130402,"lon":-89.258,"lat":37.4767},{"place":"Illinois\\Vermilion","number":199126,"lon":-87.7347,"lat":40.1734},{"place":"Illinois\\Wabash","number":313570,"lon":-87.8446,"lat":38.4489},{"place":"Illinois\\Warren","number":18371,"lon":-90.6207,"lat":40.844},{"place":"Illinois\\Washington","number":4188473,"lon":-89.4123,"lat":38.3504},{"place":"Illinois\\Wayne","number":1122819,"lon":-88.4319,"lat":38.4222},{"place":"Illinois\\White","number":1043362,"lon":-88.1865,"lat":38.0857},{"place":"Illinois\\Whiteside","number":114301,"lon":-89.9164,"lat":41.761},{"place":"Illinois\\Will","number":442711,"lon":-87.9839,"lat":41.443},{"place":"Illinois\\Williamson","number":51600,"lon":-88.9304,"lat":37.7339},{"place":"Illinois\\Winnebago","number":271347,"lon":-89.1591,"lat":42.3395},{"place":"Illinois\\Woodford","number":126935,"lon":-89.2085,"lat":40.7866},{"place":"Indiana\\Adams","number":565088,"lon":-84.9513,"lat":40.7439},{"place":"Indiana\\Allen","number":943357,"lon":-85.0763,"lat":41.0968},{"place":"Indiana\\Bartholomew","number":496830,"lon":-85.8954,"lat":39.2052},{"place":"Indiana\\Benton","number":146000,"lon":-87.3088,"lat":40.6024},{"place":"Indiana\\Blackford","number":101263,"lon":-85.3378,"lat":40.4705},{"place":"Indiana\\Boone","number":173626,"lon":-86.4611,"lat":40.0474},{"place":"Indiana\\Carroll","number":202679,"lon":-86.5531,"lat":40.579},{"place":"Indiana\\Cass","number":205443,"lon":-86.349,"lat":40.7609},{"place":"Indiana\\Clark","number":167776,"lon":-85.7128,"lat":38.482},{"place":"Indiana\\Clay","number":55482,"lon":-87.1175,"lat":39.3923},{"place":"Indiana\\Clinton","number":86683,"lon":-86.4686,"lat":40.2972},{"place":"Indiana\\Crawford","number":5500,"lon":-86.4541,"lat":38.2988},{"place":"Indiana\\Daviess","number":290280,"lon":-87.0706,"lat":38.7054},{"place":"Indiana\\Dearborn","number":16546,"lon":-84.9835,"lat":39.1466},{"place":"Indiana\\Decatur","number":211893,"lon":-85.5064,"lat":39.3042},{"place":"Indiana\\DeKalb","number":502577,"lon":-85.0042,"lat":41.4097},{"place":"Indiana\\Delaware","number":95368,"lon":-85.4102,"lat":40.2259},{"place":"Indiana\\Dubois","number":284873,"lon":-86.8823,"lat":38.3629},{"place":"Indiana\\Elkhart","number":108435,"lon":-85.8617,"lat":41.6001},{"place":"Indiana\\Fayette","number":67956,"lon":-85.1828,"lat":39.6335},{"place":"Indiana\\Floyd","number":14241,"lon":-85.9038,"lat":38.3204},{"place":"Indiana\\Fountain","number":81460,"lon":-87.2388,"lat":40.1256},{"place":"Indiana\\Franklin","number":92904,"lon":-85.0623,"lat":39.4142},{"place":"Indiana\\Fulton","number":75296,"lon":-86.2668,"lat":41.0488},{"place":"Indiana\\Gibson","number":2060639,"lon":-87.584,"lat":38.3156},{"place":"Indiana\\Grant","number":182915,"lon":-85.6609,"lat":40.5143},{"place":"Indiana\\Greene","number":104331,"lon":-86.9558,"lat":39.039},{"place":"Indiana\\Hamilton","number":122855,"lon":-86.0536,"lat":40.0659},{"place":"Indiana\\Hancock","number":190432,"lon":-85.7774,"lat":39.8115},{"place":"Indiana\\Harrison","number":110464,"lon":-86.1129,"lat":38.2022},{"place":"Indiana\\Hendricks","number":257633,"lon":-86.4987,"lat":39.7676},{"place":"Indiana\\Henry","number":168667,"lon":-85.4085,"lat":39.9262},{"place":"Indiana\\Howard","number":139208,"lon":-86.1167,"lat":40.4793},{"place":"Indiana\\Huntington","number":264612,"lon":-85.5001,"lat":40.8338},{"place":"Indiana\\Jackson","number":200451,"lon":-86.0312,"lat":38.9097},{"place":"Indiana\\Jasper","number":65435,"lon":-87.1099,"lat":41.0224},{"place":"Indiana\\Jay","number":505489,"lon":-85.0166,"lat":40.4376},{"place":"Indiana\\Jefferson","number":84622,"lon":-85.4364,"lat":38.7894},{"place":"Indiana\\Jennings","number":81148,"lon":-85.632,"lat":38.9963},{"place":"Indiana\\Johnson","number":202799,"lon":-86.0969,"lat":39.4841},{"place":"Indiana\\Knox","number":897502,"lon":-87.4192,"lat":38.6972},{"place":"Indiana\\Kosciusko","number":198136,"lon":-85.8684,"lat":41.2405},{"place":"Indiana\\LaGrange","number":111198,"lon":-85.4361,"lat":41.6598},{"place":"Indiana\\Lake","number":108422,"lon":-87.3833,"lat":41.4228},{"place":"Indiana\\LaPorte","number":413773,"lon":-86.7324,"lat":41.552},{"place":"Indiana\\Lawrence","number":19039,"lon":-86.4723,"lat":38.84},{"place":"Indiana\\Madison","number":82853,"lon":-85.7292,"lat":40.1514},{"place":"Indiana\\Marion","number":9661,"lon":-86.1339,"lat":39.7758},{"place":"Indiana\\Marshall","number":120255,"lon":-86.2577,"lat":41.3252},{"place":"Indiana\\Martin","number":96802,"lon":-86.7947,"lat":38.7085},{"place":"Indiana\\Miami","number":251621,"lon":-86.0478,"lat":40.7723},{"place":"Indiana\\Monroe","number":2038,"lon":-86.5124,"lat":39.1597},{"place":"Indiana\\Montgomery","number":103273,"lon":-86.882,"lat":40.0408},{"place":"Indiana\\Morgan","number":72933,"lon":-86.4357,"lat":39.4811},{"place":"Indiana\\Newton","number":157559,"lon":-87.3969,"lat":40.9526},{"place":"Indiana\\Noble","number":232645,"lon":-85.4325,"lat":41.4128},{"place":"Indiana\\Ohio","number":10984,"lon":-84.9777,"lat":38.9507},{"place":"Indiana\\Orange","number":49311,"lon":-86.49,"lat":38.5425},{"place":"Indiana\\Owen","number":80609,"lon":-86.8285,"lat":39.3169},{"place":"Indiana\\Parke","number":95993,"lon":-87.2034,"lat":39.7708},{"place":"Indiana\\Perry","number":28296,"lon":-86.6372,"lat":38.0866},{"place":"Indiana\\Pike","number":147657,"lon":-87.2381,"lat":38.4008},{"place":"Indiana\\Porter","number":104635,"lon":-87.0637,"lat":41.463},{"place":"Indiana\\Posey","number":2136896,"lon":-87.8732,"lat":38.0253},{"place":"Indiana\\Pulaski","number":42406,"lon":-86.6902,"lat":41.0381},{"place":"Indiana\\Putnam","number":275981,"lon":-86.8388,"lat":39.6656},{"place":"Indiana\\Randolph","number":374234,"lon":-85.0229,"lat":40.1616},{"place":"Indiana\\Ripley","number":131674,"lon":-85.2754,"lat":39.1011},{"place":"Indiana\\Rush","number":258172,"lon":-85.4638,"lat":39.6158},{"place":"Indiana\\St. Joseph","number":186557,"lon":-86.2869,"lat":41.6211},{"place":"Indiana\\Shelby","number":162275,"lon":-85.7911,"lat":39.5189},{"place":"Indiana\\Spencer","number":194934,"lon":-87.0124,"lat":38.0145},{"place":"Indiana\\Starke","number":9442,"lon":-86.6428,"lat":41.2797},{"place":"Indiana\\Steuben","number":268824,"lon":-85.0044,"lat":41.6596},{"place":"Indiana\\Sullivan","number":134024,"lon":-87.4185,"lat":39.0963},{"place":"Indiana\\Switzerland","number":9752,"lon":-85.0343,"lat":38.8276},{"place":"Indiana\\Tippecanoe","number":131769,"lon":-86.8858,"lat":40.3868},{"place":"Indiana\\Tipton","number":81464,"lon":-86.0528,"lat":40.3077},{"place":"Indiana\\Union","number":29051,"lon":-84.9336,"lat":39.6309},{"place":"Indiana\\Vanderburgh","number":373188,"lon":-87.5903,"lat":38.0253},{"place":"Indiana\\Vermillion","number":42868,"lon":-87.4637,"lat":39.8537},{"place":"Indiana\\Vigo","number":75222,"lon":-87.3922,"lat":39.4335},{"place":"Indiana\\Wabash","number":259480,"lon":-85.7936,"lat":40.8424},{"place":"Indiana\\Warren","number":136426,"lon":-87.3571,"lat":40.3488},{"place":"Indiana\\Warrick","number":238470,"lon":-87.2783,"lat":38.0935},{"place":"Indiana\\Washington","number":79168,"lon":-86.1,"lat":38.6036},{"place":"Indiana\\Wayne","number":123318,"lon":-85.0199,"lat":39.8679},{"place":"Indiana\\Wells","number":394579,"lon":-85.2403,"lat":40.7286},{"place":"Indiana\\White","number":144185,"lon":-86.8619,"lat":40.7438},{"place":"Indiana\\Whitley","number":383278,"lon":-85.5179,"lat":41.1505},{"place":"Iowa\\Benton","number":2678,"lon":-92.0528,"lat":42.0871},{"place":"Iowa\\Cass","number":1172,"lon":-94.9383,"lat":41.3314},{"place":"Iowa\\Cedar","number":6550,"lon":-91.1143,"lat":41.779},{"place":"Iowa\\Davis","number":39011,"lon":-92.4024,"lat":40.757},{"place":"Iowa\\Decatur","number":9864,"lon":-93.7918,"lat":40.7519},{"place":"Iowa\\Des Moines","number":23354,"lon":-91.1729,"lat":40.9341},{"place":"Iowa\\Jackson","number":1650,"lon":-90.5592,"lat":42.1754},{"place":"Iowa\\Jefferson","number":30281,"lon":-91.9345,"lat":41.0371},{"place":"Iowa\\Johnson","number":29672,"lon":-91.5748,"lat":41.6796},{"place":"Iowa\\Jones","number":10835,"lon":-91.1139,"lat":42.1273},{"place":"Iowa\\Lee","number":89426,"lon":-91.4639,"lat":40.6595},{"place":"Iowa\\Lucas","number":2400,"lon":-93.334,"lat":41.0331},{"place":"Iowa\\Mills","number":1713,"lon":-95.6169,"lat":41.035},{"place":"Iowa\\Muscatine","number":16571,"lon":-91.0943,"lat":41.4932},{"place":"Iowa\\Page","number":13546,"lon":-95.1514,"lat":40.7516},{"place":"Iowa\\Pottawattamie","number":15478,"lon":-95.5419,"lat":41.3361},{"place":"Iowa\\Taylor","number":24628,"lon":-94.7045,"lat":40.7507},{"place":"Iowa\\Van Buren","number":43047,"lon":-91.9382,"lat":40.7601},{"place":"Iowa\\Wapello","number":3531,"lon":-92.4009,"lat":41.0372},{"place":"Iowa\\Winnebago","number":38226,"lon":-93.7368,"lat":43.3863},{"place":"Kansas\\Allen","number":705832,"lon":-95.3179,"lat":37.8829},{"place":"Kansas\\Anderson","number":1136207,"lon":-95.3044,"lat":38.2127},{"place":"Kansas\\Atchison","number":102736,"lon":-95.3174,"lat":39.5288},{"place":"Kansas\\Barber","number":4377885,"lon":-98.6933,"lat":37.2248},{"place":"Kansas\\Barton","number":5737028,"lon":-98.7557,"lat":38.475},{"place":"Kansas\\Bourbon","number":414599,"lon":-94.8596,"lat":37.8549},{"place":"Kansas\\Brown","number":159560,"lon":-95.5722,"lat":39.8306},{"place":"Kansas\\Butler","number":3161358,"lon":-96.8525,"lat":37.7624},{"place":"Kansas\\Chase","number":470723,"lon":-96.6031,"lat":38.2886},{"place":"Kansas\\Chautauqua","number":204681,"lon":-96.2543,"lat":37.1479},{"place":"Kansas\\Cherokee","number":3831379,"lon":-94.8632,"lat":37.1816},{"place":"Kansas\\Cheyenne","number":5201500,"lon":-101.7351,"lat":39.7908},{"place":"Kansas\\Clark","number":1710387,"lon":-99.8214,"lat":37.2296},{"place":"Kansas\\Clay","number":3111046,"lon":-97.1662,"lat":39.3358},{"place":"Kansas\\Cloud","number":3598426,"lon":-97.6492,"lat":39.4653},{"place":"Kansas\\Coffey","number":1059909,"lon":-95.7457,"lat":38.2303},{"place":"Kansas\\Comanche","number":2100713,"lon":-99.2843,"lat":37.183},{"place":"Kansas\\Cowley","number":4861497,"lon":-96.8505,"lat":37.2252},{"place":"Kansas\\Crawford","number":2124998,"lon":-94.8638,"lat":37.5104},{"place":"Kansas\\Decatur","number":4010964,"lon":-100.4552,"lat":39.7887},{"place":"Kansas\\Dickinson","number":6279042,"lon":-97.1526,"lat":38.8546},{"place":"Kansas\\Doniphan","number":17669,"lon":-95.1585,"lat":39.7994},{"place":"Kansas\\Douglas","number":359575,"lon":-95.3122,"lat":38.8892},{"place":"Kansas\\Edwards","number":3553782,"lon":-99.3103,"lat":37.8807},{"place":"Kansas\\Elk","number":275576,"lon":-96.2535,"lat":37.4401},{"place":"Kansas\\Ellis","number":3082856,"lon":-99.3177,"lat":38.9124},{"place":"Kansas\\Ellsworth","number":3083457,"lon":-98.2045,"lat":38.6923},{"place":"Kansas\\Finney","number":6243843,"lon":-100.7392,"lat":38.0405},{"place":"Kansas\\Ford","number":6178108,"lon":-99.8863,"lat":37.6888},{"place":"Kansas\\Franklin","number":873821,"lon":-95.3002,"lat":38.5658},{"place":"Kansas\\Geary","number":403279,"lon":-96.7496,"lat":38.9897},{"place":"Kansas\\Gove","number":4747543,"lon":-100.4787,"lat":38.9199},{"place":"Kansas\\Graham","number":3043759,"lon":-99.8809,"lat":39.3564},{"place":"Kansas\\Grant","number":3611469,"lon":-101.3047,"lat":37.5631},{"place":"Kansas\\Gray","number":3618260,"lon":-100.4297,"lat":37.7352},{"place":"Kansas\\Greeley","number":5549379,"lon":-101.8055,"lat":38.4756},{"place":"Kansas\\Greenwood","number":459254,"lon":-96.2401,"lat":37.8639},{"place":"Kansas\\Hamilton","number":4484256,"lon":-101.7917,"lat":37.9951},{"place":"Kansas\\Harper","number":7664846,"lon":-98.0818,"lat":37.185},{"place":"Kansas\\Harvey","number":6310040,"lon":-97.4343,"lat":38.0329},{"place":"Kansas\\Haskell","number":2444265,"lon":-100.8632,"lat":37.5619},{"place":"Kansas\\Hodgeman","number":3893787,"lon":-99.8985,"lat":38.085},{"place":"Kansas\\Jackson","number":149859,"lon":-95.7972,"lat":39.4134},{"place":"Kansas\\Jefferson","number":228078,"lon":-95.3938,"lat":39.236},{"place":"Kansas\\Jewell","number":4560515,"lon":-98.2215,"lat":39.7823},{"place":"Kansas\\Johnson","number":235568,"lon":-94.8346,"lat":38.8869},{"place":"Kansas\\Kearny","number":3769675,"lon":-101.3201,"lat":37.9956},{"place":"Kansas\\Kingman","number":8174451,"lon":-98.1381,"lat":37.5509},{"place":"Kansas\\Kiowa","number":2691000,"lon":-99.2885,"lat":37.546},{"place":"Kansas\\Labette","number":2804525,"lon":-95.3112,"lat":37.1998},{"place":"Kansas\\Lane","number":2815254,"lon":-100.4557,"lat":38.4789},{"place":"Kansas\\Leavenworth","number":166565,"lon":-95.0486,"lat":39.2059},{"place":"Kansas\\Lincoln","number":3578872,"lon":-98.2108,"lat":39.0412},{"place":"Kansas\\Linn","number":610011,"lon":-94.8537,"lat":38.2152},{"place":"Kansas\\Logan","number":4597799,"lon":-101.139,"lat":38.923},{"place":"Kansas\\Lyon","number":1111032,"lon":-96.1599,"lat":38.4401},{"place":"Kansas\\McPherson","number":10871256,"lon":-97.6521,"lat":38.383},{"place":"Kansas\\Marion","number":6077589,"lon":-97.1046,"lat":38.3478},{"place":"Kansas\\Marshall","number":1804325,"lon":-96.5253,"lat":39.7795},{"place":"Kansas\\Meade","number":3374842,"lon":-100.3579,"lat":37.2366},{"place":"Kansas\\Miami","number":476256,"lon":-94.8474,"lat":38.5656},{"place":"Kansas\\Mitchell","number":6988163,"lon":-98.2086,"lat":39.3866},{"place":"Kansas\\Montgomery","number":2337271,"lon":-95.7544,"lat":37.2024},{"place":"Kansas\\Morris","number":1318476,"lon":-96.6474,"lat":38.6757},{"place":"Kansas\\Morton","number":3737346,"lon":-101.8016,"lat":37.1939},{"place":"Kansas\\Nemaha","number":564882,"lon":-96.0158,"lat":39.7799},{"place":"Kansas\\Neosho","number":1722779,"lon":-95.3169,"lat":37.5592},{"place":"Kansas\\Ness","number":4017814,"lon":-99.9104,"lat":38.4763},{"place":"Kansas\\Norton","number":2788554,"lon":-99.9032,"lat":39.7877},{"place":"Kansas\\Osage","number":587869,"lon":-95.7399,"lat":38.6456},{"place":"Kansas\\Osborne","number":3767310,"lon":-98.761,"lat":39.3454},{"place":"Kansas\\Ottawa","number":4430064,"lon":-97.6499,"lat":39.1219},{"place":"Kansas\\Pawnee","number":4718824,"lon":-99.2377,"lat":38.1789},{"place":"Kansas\\Phillips","number":3116136,"lon":-99.3471,"lat":39.7822},{"place":"Kansas\\Pottawatomie","number":246128,"lon":-96.3398,"lat":39.3691},{"place":"Kansas\\Pratt","number":6740732,"lon":-98.7414,"lat":37.6389},{"place":"Kansas\\Rawlins","number":5764197,"lon":-101.0696,"lat":39.7945},{"place":"Kansas\\Reno","number":10453081,"lon":-98.0845,"lat":37.9456},{"place":"Kansas\\Republic","number":2812750,"lon":-97.6553,"lat":39.8215},{"place":"Kansas\\Rice","number":7724541,"lon":-98.2017,"lat":38.3397},{"place":"Kansas\\Riley","number":701200,"lon":-96.738,"lat":39.2905},{"place":"Kansas\\Rooks","number":3790680,"lon":-99.3194,"lat":39.3507},{"place":"Kansas\\Rush","number":3603148,"lon":-99.3056,"lat":38.5185},{"place":"Kansas\\Russell","number":3063111,"lon":-98.764,"lat":38.9111},{"place":"Kansas\\Saline","number":5559139,"lon":-97.6532,"lat":38.7751},{"place":"Kansas\\Scott","number":4075907,"lon":-100.9021,"lat":38.4822},{"place":"Kansas\\Sedgwick","number":9126806,"lon":-97.4692,"lat":37.6653},{"place":"Kansas\\Seward","number":2376825,"lon":-100.8468,"lat":37.195},{"place":"Kansas\\Shawnee","number":313096,"lon":-95.7645,"lat":39.0418},{"place":"Kansas\\Sheridan","number":3793939,"lon":-100.4387,"lat":39.3575},{"place":"Kansas\\Sherman","number":6407492,"lon":-101.7182,"lat":39.3559},{"place":"Kansas\\Smith","number":5206712,"lon":-98.7879,"lat":39.7829},{"place":"Kansas\\Stafford","number":6801435,"lon":-98.7172,"lat":38.0243},{"place":"Kansas\\Stanton","number":4198519,"lon":-101.7849,"lat":37.5614},{"place":"Kansas\\Stevens","number":2809377,"lon":-101.3118,"lat":37.196},{"place":"Kansas\\Sumner","number":15799490,"lon":-97.4902,"lat":37.224},{"place":"Kansas\\Thomas","number":7745136,"lon":-101.0481,"lat":39.3617},{"place":"Kansas\\Trego","number":2800700,"lon":-99.8766,"lat":38.9185},{"place":"Kansas\\Wabaunsee","number":250767,"lon":-96.2065,"lat":38.9405},{"place":"Kansas\\Wallace","number":3281153,"lon":-101.7634,"lat":38.9156},{"place":"Kansas\\Washington","number":2944886,"lon":-97.0921,"lat":39.7784},{"place":"Kansas\\Wichita","number":5694434,"lon":-101.3443,"lat":38.4781},{"place":"Kansas\\Wilson","number":1796801,"lon":-95.7535,"lat":37.5595},{"place":"Kansas\\Woodson","number":1146225,"lon":-95.7499,"lat":37.8815},{"place":"Kansas\\Wyandotte","number":3983,"lon":-94.7692,"lat":39.1249},{"place":"Kentucky\\Adair","number":117417,"lon":-85.2951,"lat":37.0906},{"place":"Kentucky\\Allen","number":4633,"lon":-86.1839,"lat":36.7577},{"place":"Kentucky\\Ballard","number":928022,"lon":-89.0024,"lat":37.073},{"place":"Kentucky\\Barren","number":158368,"lon":-85.9284,"lat":36.9724},{"place":"Kentucky\\Bath","number":7739,"lon":-83.735,"lat":38.1534},{"place":"Kentucky\\Boone","number":828,"lon":-84.7291,"lat":38.9643},{"place":"Kentucky\\Bourbon","number":85442,"lon":-84.2112,"lat":38.206},{"place":"Kentucky\\Boyle","number":20576,"lon":-84.87,"lat":37.6228},{"place":"Kentucky\\Bracken","number":1960,"lon":-84.0872,"lat":38.6964},{"place":"Kentucky\\Breckinridge","number":206759,"lon":-86.4353,"lat":37.7852},{"place":"Kentucky\\Bullitt","number":2500,"lon":-85.6982,"lat":37.9674},{"place":"Kentucky\\Butler","number":13855,"lon":-86.6743,"lat":37.2085},{"place":"Kentucky\\Caldwell","number":1054760,"lon":-87.8631,"lat":37.1423},{"place":"Kentucky\\Calloway","number":2043464,"lon":-88.2704,"lat":36.6248},{"place":"Kentucky\\Carlisle","number":866546,"lon":-88.96,"lat":36.8609},{"place":"Kentucky\\Casey","number":93310,"lon":-84.9384,"lat":37.2992},{"place":"Kentucky\\Christian","number":4276229,"lon":-87.485,"lat":36.8925},{"place":"Kentucky\\Clark","number":23697,"lon":-84.1423,"lat":37.9702},{"place":"Kentucky\\Clinton","number":35205,"lon":-85.1379,"lat":36.7298},{"place":"Kentucky\\Crittenden","number":322866,"lon":-88.1008,"lat":37.3523},{"place":"Kentucky\\Daviess","number":581159,"lon":-87.0886,"lat":37.7303},{"place":"Kentucky\\Fayette","number":22997,"lon":-84.4562,"lat":38.0382},{"place":"Kentucky\\Fleming","number":48986,"lon":-83.6829,"lat":38.3737},{"place":"Kentucky\\Franklin","number":9032,"lon":-84.8771,"lat":38.2296},{"place":"Kentucky\\Fulton","number":683715,"lon":-89.1247,"lat":36.5754},{"place":"Kentucky\\Garrard","number":10706,"lon":-84.5366,"lat":37.6404},{"place":"Kentucky\\Grant","number":783,"lon":-84.6142,"lat":38.6405},{"place":"Kentucky\\Graves","number":2126296,"lon":-88.6476,"lat":36.7261},{"place":"Kentucky\\Grayson","number":103173,"lon":-86.3439,"lat":37.4706},{"place":"Kentucky\\Green","number":72227,"lon":-85.5652,"lat":37.2667},{"place":"Kentucky\\Hancock","number":90720,"lon":-86.7833,"lat":37.8474},{"place":"Kentucky\\Hardin","number":340749,"lon":-85.9714,"lat":37.703},{"place":"Kentucky\\Harrison","number":11220,"lon":-84.33,"lat":38.4375},{"place":"Kentucky\\Hart","number":14976,"lon":-85.8878,"lat":37.304},{"place":"Kentucky\\Henderson","number":360777,"lon":-87.5733,"lat":37.795},{"place":"Kentucky\\Henry","number":18420,"lon":-85.121,"lat":38.4389},{"place":"Kentucky\\Hickman","number":1307149,"lon":-88.9276,"lat":36.679},{"place":"Kentucky\\Hopkins","number":270409,"lon":-87.5412,"lat":37.3082},{"place":"Kentucky\\Jessamine","number":11530,"lon":-84.5791,"lat":37.8705},{"place":"Kentucky\\Larue","number":222918,"lon":-85.7096,"lat":37.548},{"place":"Kentucky\\Laurel","number":2500,"lon":-84.1109,"lat":37.113},{"place":"Kentucky\\Lincoln","number":21778,"lon":-84.6636,"lat":37.4582},{"place":"Kentucky\\Livingston","number":159136,"lon":-88.3593,"lat":37.2058},{"place":"Kentucky\\Logan","number":2500761,"lon":-86.876,"lat":36.8565},{"place":"Kentucky\\Lyon","number":64528,"lon":-88.0769,"lat":37.015},{"place":"Kentucky\\McCracken","number":331731,"lon":-88.7108,"lat":37.0602},{"place":"Kentucky\\McLean","number":521544,"lon":-87.2668,"lat":37.5271},{"place":"Kentucky\\Madison","number":2934,"lon":-84.2758,"lat":37.7207},{"place":"Kentucky\\Marion","number":103240,"lon":-85.2765,"lat":37.5579},{"place":"Kentucky\\Marshall","number":323218,"lon":-88.3257,"lat":36.8804},{"place":"Kentucky\\Mason","number":12438,"lon":-83.8086,"lat":38.6009},{"place":"Kentucky\\Meade","number":240606,"lon":-86.2155,"lat":37.9839},{"place":"Kentucky\\Menifee","number":2700,"lon":-83.5981,"lat":37.948},{"place":"Kentucky\\Mercer","number":21592,"lon":-84.8755,"lat":37.8102},{"place":"Kentucky\\Metcalfe","number":7978,"lon":-85.6359,"lat":36.9951},{"place":"Kentucky\\Monroe","number":67150,"lon":-85.7202,"lat":36.7144},{"place":"Kentucky\\Muhlenberg","number":123516,"lon":-87.14,"lat":37.2129},{"place":"Kentucky\\Nelson","number":577948,"lon":-85.4854,"lat":37.8088},{"place":"Kentucky\\Nicholas","number":2529,"lon":-84.005,"lat":38.3379},{"place":"Kentucky\\Ohio","number":66758,"lon":-86.8491,"lat":37.4776},{"place":"Kentucky\\Oldham","number":34575,"lon":-85.4556,"lat":38.3921},{"place":"Kentucky\\Owen","number":72416,"lon":-84.8206,"lat":38.5074},{"place":"Kentucky\\Pendleton","number":8448,"lon":-84.3515,"lat":38.6904},{"place":"Kentucky\\Pulaski","number":149511,"lon":-84.5597,"lat":37.1102},{"place":"Kentucky\\Rockcastle","number":23751,"lon":-84.3136,"lat":37.3667},{"place":"Kentucky\\Russell","number":13720,"lon":-85.0658,"lat":36.9794},{"place":"Kentucky\\Scott","number":50600,"lon":-84.5792,"lat":38.2855},{"place":"Kentucky\\Shelby","number":237385,"lon":-85.1975,"lat":38.2067},{"place":"Kentucky\\Simpson","number":1059810,"lon":-86.5797,"lat":36.7414},{"place":"Kentucky\\Spencer","number":11520,"lon":-85.3233,"lat":38.0271},{"place":"Kentucky\\Taylor","number":143198,"lon":-85.3367,"lat":37.3602},{"place":"Kentucky\\Todd","number":2087397,"lon":-87.1754,"lat":36.8341},{"place":"Kentucky\\Trigg","number":1164203,"lon":-87.8701,"lat":36.8038},{"place":"Kentucky\\Trimble","number":8270,"lon":-85.345,"lat":38.6032},{"place":"Kentucky\\Union","number":793989,"lon":-87.9446,"lat":37.6548},{"place":"Kentucky\\Warren","number":1092056,"lon":-86.4202,"lat":36.9977},{"place":"Kentucky\\Washington","number":42859,"lon":-85.1784,"lat":37.7601},{"place":"Kentucky\\Wayne","number":90042,"lon":-84.8244,"lat":36.8061},{"place":"Kentucky\\Webster","number":100400,"lon":-87.6796,"lat":37.5168},{"place":"Kentucky\\Woodford","number":17950,"lon":-84.7435,"lat":38.0353},{"place":"Louisiana\\Acadia","number":53323,"lon":-92.4072,"lat":30.2991},{"place":"Louisiana\\Allen","number":48950,"lon":-92.8236,"lat":30.6553},{"place":"Louisiana\\Avoyelles","number":855846,"lon":-92.0057,"lat":31.0801},{"place":"Louisiana\\Beauregard","number":78571,"lon":-93.349,"lat":30.6551},{"place":"Louisiana\\Bossier","number":126045,"lon":-93.6046,"lat":32.6814},{"place":"Louisiana\\Caddo","number":248635,"lon":-93.8884,"lat":32.5912},{"place":"Louisiana\\Calcasieu","number":12950,"lon":-93.3489,"lat":30.237},{"place":"Louisiana\\Caldwell","number":122636,"lon":-92.1204,"lat":32.09},{"place":"Louisiana\\Catahoula","number":476456,"lon":-91.8492,"lat":31.666},{"place":"Louisiana\\Concordia","number":616641,"lon":-91.6419,"lat":31.4551},{"place":"Louisiana\\East Carroll","number":730639,"lon":-91.2447,"lat":32.7237},{"place":"Louisiana\\East Feliciana","number":231000,"lon":-91.0461,"lat":30.8453},{"place":"Louisiana\\Evangeline","number":32877,"lon":-92.4045,"lat":30.7336},{"place":"Louisiana\\Franklin","number":1145416,"lon":-91.6769,"lat":32.1357},{"place":"Louisiana\\Grant","number":60047,"lon":-92.5546,"lat":31.6037},{"place":"Louisiana\\Jefferson Davis","number":84999,"lon":-92.8074,"lat":30.2698},{"place":"Louisiana\\Lafayette","number":73438,"lon":-92.0603,"lat":30.2132},{"place":"Louisiana\\Madison","number":431694,"lon":-91.2478,"lat":32.3703},{"place":"Louisiana\\Morehouse","number":894382,"lon":-91.8079,"lat":32.8222},{"place":"Louisiana\\Natchitoches","number":66826,"lon":-93.0919,"lat":31.7267},{"place":"Louisiana\\Ouachita","number":494682,"lon":-92.1594,"lat":32.4833},{"place":"Louisiana\\Pointe Coupee","number":1344812,"lon":-91.6092,"lat":30.7168},{"place":"Louisiana\\Rapides","number":239726,"lon":-92.5301,"lat":31.2051},{"place":"Louisiana\\Red River","number":196009,"lon":-93.3388,"lat":32.0992},{"place":"Louisiana\\Richland","number":1351106,"lon":-91.7717,"lat":32.4219},{"place":"Louisiana\\St. Landry","number":667409,"lon":-92.0033,"lat":30.6033},{"place":"Louisiana\\St. Martin","number":33244,"lon":-91.7249,"lat":30.2268},{"place":"Louisiana\\Tangipahoa","number":25790,"lon":-90.4138,"lat":30.6533},{"place":"Louisiana\\Tensas","number":1016172,"lon":-91.333,"lat":32.0077},{"place":"Louisiana\\West Carroll","number":1210713,"lon":-91.4635,"lat":32.7883},{"place":"Louisiana\\West Feliciana","number":405688,"lon":-91.4213,"lat":30.8824},{"place":"Maryland\\Anne Arundel","number":75088,"lon":-76.6261,"lat":39.0052},{"place":"Maryland\\Baltimore","number":244535,"lon":-76.6496,"lat":39.4729},{"place":"Maryland\\Calvert","number":409804,"lon":-76.5875,"lat":38.5539},{"place":"Maryland\\Caroline","number":1818149,"lon":-75.8421,"lat":38.8724},{"place":"Maryland\\Carroll","number":495034,"lon":-77.033,"lat":39.5648},{"place":"Maryland\\Cecil","number":573451,"lon":-75.9471,"lat":39.5839},{"place":"Maryland\\Charles","number":240529,"lon":-77.0419,"lat":38.5003},{"place":"Maryland\\Dorchester","number":1127332,"lon":-76.0071,"lat":38.4853},{"place":"Maryland\\Frederick","number":828950,"lon":-77.4078,"lat":39.4774},{"place":"Maryland\\Garrett","number":9016,"lon":-79.2732,"lat":39.5413},{"place":"Maryland\\Harford","number":125130,"lon":-76.326,"lat":39.5657},{"place":"Maryland\\Howard","number":180471,"lon":-76.936,"lat":39.2491},{"place":"Maryland\\Kent","number":1421583,"lon":-76.0356,"lat":39.2572},{"place":"Maryland\\Montgomery","number":324324,"lon":-77.2202,"lat":39.1383},{"place":"Maryland\\Prince George's","number":85674,"lon":-76.8638,"lat":38.8281},{"place":"Maryland\\Queen Anne's","number":1878061,"lon":-75.9886,"lat":39.0836},{"place":"Maryland\\St. Mary's","number":390918,"lon":-76.6296,"lat":38.3023},{"place":"Maryland\\Somerset","number":630679,"lon":-75.7365,"lat":38.1226},{"place":"Maryland\\Talbot","number":1569314,"lon":-76.0929,"lat":38.7727},{"place":"Maryland\\Washington","number":444375,"lon":-77.8208,"lat":39.6113},{"place":"Maryland\\Wicomico","number":271686,"lon":-75.6286,"lat":38.3742},{"place":"Maryland\\Worcester","number":807487,"lon":-75.3442,"lat":38.2265},{"place":"Michigan\\Alcona","number":66136,"lon":-83.595,"lat":44.6887},{"place":"Michigan\\Allegan","number":538500,"lon":-85.8852,"lat":42.59},{"place":"Michigan\\Alpena","number":152582,"lon":-83.6291,"lat":45.039},{"place":"Michigan\\Antrim","number":20239,"lon":-85.1362,"lat":45.0024},{"place":"Michigan\\Arenac","number":543206,"lon":-83.892,"lat":44.0705},{"place":"Michigan\\Barry","number":421487,"lon":-85.312,"lat":42.5933},{"place":"Michigan\\Bay","number":1076140,"lon":-83.9875,"lat":43.7056},{"place":"Michigan\\Benzie","number":320,"lon":-86.0064,"lat":44.6432},{"place":"Michigan\\Berrien","number":191880,"lon":-86.4185,"lat":41.9596},{"place":"Michigan\\Branch","number":238874,"lon":-85.0643,"lat":41.9265},{"place":"Michigan\\Calhoun","number":447056,"lon":-85.0027,"lat":42.2456},{"place":"Michigan\\Cass","number":107312,"lon":-85.9909,"lat":41.9199},{"place":"Michigan\\Charlevoix","number":6740,"lon":-85.0341,"lat":45.2251},{"place":"Michigan\\Cheboygan","number":12350,"lon":-84.5058,"lat":45.4479},{"place":"Michigan\\Chippewa","number":5388,"lon":-84.724,"lat":46.3285},{"place":"Michigan\\Clare","number":57543,"lon":-84.8428,"lat":43.9913},{"place":"Michigan\\Clinton","number":1502438,"lon":-84.5943,"lat":42.949},{"place":"Michigan\\Eaton","number":1147081,"lon":-84.8379,"lat":42.599},{"place":"Michigan\\Emmet","number":2015,"lon":-84.8896,"lat":45.5134},{"place":"Michigan\\Genesee","number":450289,"lon":-83.7035,"lat":43.028},{"place":"Michigan\\Gladwin","number":101372,"lon":-84.3786,"lat":43.9929},{"place":"Michigan\\Grand Traverse","number":62310,"lon":-85.5544,"lat":44.6739},{"place":"Michigan\\Hillsdale","number":700606,"lon":-84.5966,"lat":41.8966},{"place":"Michigan\\Huron","number":4893531,"lon":-83.013,"lat":43.8392},{"place":"Michigan\\Ingham","number":1488963,"lon":-84.3682,"lat":42.604},{"place":"Michigan\\Ionia","number":934268,"lon":-85.0706,"lat":42.9475},{"place":"Michigan\\Iosco","number":60720,"lon":-83.6364,"lat":44.3592},{"place":"Michigan\\Iron","number":6834,"lon":-88.538,"lat":46.2119},{"place":"Michigan\\Isabella","number":1241678,"lon":-84.8436,"lat":43.6408},{"place":"Michigan\\Jackson","number":451014,"lon":-84.4193,"lat":42.2505},{"place":"Michigan\\Kalamazoo","number":244217,"lon":-85.5254,"lat":42.247},{"place":"Michigan\\Kalkaska","number":72786,"lon":-85.0793,"lat":44.6883},{"place":"Michigan\\Kent","number":393150,"lon":-85.5457,"lat":43.0326},{"place":"Michigan\\Lake","number":13612,"lon":-85.8047,"lat":43.9935},{"place":"Michigan\\Lapeer","number":607895,"lon":-83.2213,"lat":43.0991},{"place":"Michigan\\Leelanau","number":10312,"lon":-85.77,"lat":44.9209},{"place":"Michigan\\Lenawee","number":2235917,"lon":-84.0669,"lat":41.907},{"place":"Michigan\\Livingston","number":403300,"lon":-83.9067,"lat":42.6089},{"place":"Michigan\\Mackinac","number":17475,"lon":-85.1212,"lat":46.0937},{"place":"Michigan\\Macomb","number":178984,"lon":-82.9281,"lat":42.7035},{"place":"Michigan\\Manistee","number":2290,"lon":-86.0525,"lat":44.3371},{"place":"Michigan\\Mason","number":295295,"lon":-86.2471,"lat":43.9945},{"place":"Michigan\\Mecosta","number":66815,"lon":-85.3255,"lat":43.6408},{"place":"Michigan\\Midland","number":347486,"lon":-84.3839,"lat":43.6479},{"place":"Michigan\\Missaukee","number":42906,"lon":-85.0814,"lat":44.3412},{"place":"Michigan\\Monroe","number":1284664,"lon":-83.5371,"lat":41.9423},{"place":"Michigan\\Montcalm","number":1082636,"lon":-85.154,"lat":43.311},{"place":"Michigan\\Montmorency","number":41352,"lon":-84.121,"lat":45.0291},{"place":"Michigan\\Muskegon","number":207602,"lon":-86.137,"lat":43.2879},{"place":"Michigan\\Newaygo","number":148447,"lon":-85.8047,"lat":43.5536},{"place":"Michigan\\Oakland","number":69595,"lon":-83.3824,"lat":42.6677},{"place":"Michigan\\Oceana","number":122387,"lon":-86.2544,"lat":43.6368},{"place":"Michigan\\Ogemaw","number":168265,"lon":-84.1217,"lat":44.3398},{"place":"Michigan\\Osceola","number":37305,"lon":-85.3234,"lat":43.9913},{"place":"Michigan\\Otsego","number":60536,"lon":-84.5935,"lat":45.0182},{"place":"Michigan\\Ottawa","number":291708,"lon":-85.9868,"lat":42.9615},{"place":"Michigan\\Presque Isle","number":235261,"lon":-83.9148,"lat":45.3455},{"place":"Michigan\\Saginaw","number":1822598,"lon":-84.05,"lat":43.3376},{"place":"Michigan\\St. Clair","number":664019,"lon":-82.6986,"lat":42.9578},{"place":"Michigan\\St. Joseph","number":146109,"lon":-85.5266,"lat":41.927},{"place":"Michigan\\Sanilac","number":4075304,"lon":-82.821,"lat":43.4278},{"place":"Michigan\\Shiawassee","number":1826314,"lon":-84.1382,"lat":42.9575},{"place":"Michigan\\Tuscola","number":2729804,"lon":-83.4152,"lat":43.4712},{"place":"Michigan\\Van Buren","number":54038,"lon":-86.0148,"lat":42.2491},{"place":"Michigan\\Washtenaw","number":892972,"lon":-83.8354,"lat":42.2604},{"place":"Michigan\\Wayne","number":11261,"lon":-83.2859,"lat":42.2954},{"place":"Michigan\\Wexford","number":11478,"lon":-85.5712,"lat":44.3434},{"place":"Minnesota\\Becker","number":19743,"lon":-95.6586,"lat":46.9351},{"place":"Minnesota\\Beltrami","number":20382,"lon":-94.9156,"lat":47.9675},{"place":"Minnesota\\Benton","number":13522,"lon":-94.0055,"lat":45.7129},{"place":"Minnesota\\Carver","number":4308,"lon":-93.8048,"lat":44.8314},{"place":"Minnesota\\Clay","number":53292,"lon":-96.4735,"lat":46.8935},{"place":"Minnesota\\Clearwater","number":29640,"lon":-95.369,"lat":47.58},{"place":"Minnesota\\Dakota","number":9533,"lon":-93.0689,"lat":44.6839},{"place":"Minnesota\\Douglas","number":54000,"lon":-95.4526,"lat":45.9397},{"place":"Minnesota\\Goodhue","number":8338,"lon":-92.7272,"lat":44.4179},{"place":"Minnesota\\Isanti","number":4750,"lon":-93.2944,"lat":45.5733},{"place":"Minnesota\\Kittson","number":300732,"lon":-96.7649,"lat":48.7758},{"place":"Minnesota\\Lac qui Parle","number":23395,"lon":-96.1639,"lat":45.0021},{"place":"Minnesota\\Le Sueur","number":12678,"lon":-93.7265,"lat":44.3828},{"place":"Minnesota\\Lyon","number":7850,"lon":-95.8282,"lat":44.4285},{"place":"Minnesota\\McLeod","number":13807,"lon":-94.2731,"lat":44.8293},{"place":"Minnesota\\Marshall","number":86981,"lon":-96.367,"lat":48.3553},{"place":"Minnesota\\Morrison","number":2098,"lon":-94.2689,"lat":46.0226},{"place":"Minnesota\\Nicollet","number":5070,"lon":-94.2461,"lat":44.365},{"place":"Minnesota\\Nobles","number":8000,"lon":-95.7605,"lat":43.6815},{"place":"Minnesota\\Norman","number":57918,"lon":-96.44,"lat":47.327},{"place":"Minnesota\\Otter Tail","number":15322,"lon":-95.6957,"lat":46.4104},{"place":"Minnesota\\Pennington","number":70010,"lon":-96.0057,"lat":48.0659},{"place":"Minnesota\\Polk","number":201475,"lon":-96.3927,"lat":47.776},{"place":"Minnesota\\Pope","number":1733,"lon":-95.4425,"lat":45.5932},{"place":"Minnesota\\Red Lake","number":26029,"lon":-96.0766,"lat":47.8732},{"place":"Minnesota\\Renville","number":19765,"lon":-94.9422,"lat":44.7369},{"place":"Minnesota\\Rice","number":13087,"lon":-93.2971,"lat":44.3635},{"place":"Minnesota\\Roseau","number":95756,"lon":-95.7866,"lat":48.7733},{"place":"Minnesota\\Scott","number":5314,"lon":-93.5345,"lat":44.6596},{"place":"Minnesota\\Sibley","number":5941,"lon":-94.2261,"lat":44.5911},{"place":"Minnesota\\Stearns","number":22192,"lon":-94.6138,"lat":45.5611},{"place":"Minnesota\\Stevens","number":42837,"lon":-95.9953,"lat":45.5924},{"place":"Minnesota\\Swift","number":33087,"lon":-95.6759,"lat":45.2869},{"place":"Minnesota\\Todd","number":20626,"lon":-94.8946,"lat":46.0781},{"place":"Minnesota\\Traverse","number":6841,"lon":-96.4652,"lat":45.7768},{"place":"Minnesota\\Winona","number":4760,"lon":-91.7792,"lat":43.997},{"place":"Minnesota\\Wright","number":8260,"lon":-93.9639,"lat":45.1826},{"place":"Minnesota\\Yellow Medicine","number":4140,"lon":-95.8575,"lat":44.7256},{"place":"Mississippi\\Alcorn","number":68278,"lon":-88.5812,"lat":34.8804},{"place":"Mississippi\\Amite","number":133000,"lon":-90.8095,"lat":31.1763},{"place":"Mississippi\\Benton","number":69866,"lon":-89.1889,"lat":34.8186},{"place":"Mississippi\\Bolivar","number":2439247,"lon":-90.8875,"lat":33.8005},{"place":"Mississippi\\Calhoun","number":126106,"lon":-89.3335,"lat":33.9412},{"place":"Mississippi\\Carroll","number":236942,"lon":-89.923,"lat":33.451},{"place":"Mississippi\\Chickasaw","number":66710,"lon":-88.9426,"lat":33.9209},{"place":"Mississippi\\Choctaw","number":840,"lon":-89.2459,"lat":33.3443},{"place":"Mississippi\\Clay","number":23292,"lon":-88.7823,"lat":33.657},{"place":"Mississippi\\Coahoma","number":1387578,"lon":-90.6083,"lat":34.2361},{"place":"Mississippi\\Covington","number":53564,"lon":-89.5589,"lat":31.6401},{"place":"Mississippi\\DeSoto","number":306654,"lon":-89.9934,"lat":34.8767},{"place":"Mississippi\\Greene","number":32220,"lon":-88.6387,"lat":31.2136},{"place":"Mississippi\\Hinds","number":153549,"lon":-90.4517,"lat":32.2713},{"place":"Mississippi\\Holmes","number":252043,"lon":-90.0978,"lat":33.1277},{"place":"Mississippi\\Humphreys","number":657592,"lon":-90.5317,"lat":33.1346},{"place":"Mississippi\\Issaquena","number":192418,"lon":-90.9928,"lat":32.7404},{"place":"Mississippi\\Itawamba","number":98319,"lon":-88.3613,"lat":34.2781},{"place":"Mississippi\\Jefferson","number":94800,"lon":-91.0365,"lat":31.7381},{"place":"Mississippi\\Lafayette","number":26000,"lon":-89.4845,"lat":34.3623},{"place":"Mississippi\\Lamar","number":14411,"lon":-89.515,"lat":31.2151},{"place":"Mississippi\\Lee","number":227290,"lon":-88.6776,"lat":34.2842},{"place":"Mississippi\\Leflore","number":566077,"lon":-90.3054,"lat":33.5528},{"place":"Mississippi\\Lincoln","number":25696,"lon":-90.4634,"lat":31.5392},{"place":"Mississippi\\Lowndes","number":160888,"lon":-88.4434,"lat":33.4683},{"place":"Mississippi\\Madison","number":83988,"lon":-90.0446,"lat":32.638},{"place":"Mississippi\\Marshall","number":204894,"lon":-89.5032,"lat":34.7649},{"place":"Mississippi\\Monroe","number":492686,"lon":-88.4766,"lat":33.8897},{"place":"Mississippi\\Noxubee","number":224780,"lon":-88.562,"lat":33.1071},{"place":"Mississippi\\Panola","number":1136054,"lon":-89.949,"lat":34.3698},{"place":"Mississippi\\Pike","number":6000,"lon":-90.4126,"lat":31.1765},{"place":"Mississippi\\Pontotoc","number":46798,"lon":-89.0388,"lat":34.2279},{"place":"Mississippi\\Prentiss","number":90391,"lon":-88.5234,"lat":34.616},{"place":"Mississippi\\Quitman","number":385899,"lon":-90.2924,"lat":34.255},{"place":"Mississippi\\Rankin","number":15870,"lon":-89.9529,"lat":32.2674},{"place":"Mississippi\\Sharkey","number":485891,"lon":-90.8132,"lat":32.8812},{"place":"Mississippi\\Simpson","number":68633,"lon":-89.9252,"lat":31.9163},{"place":"Mississippi\\Smith","number":29690,"lon":-89.5084,"lat":32.025},{"place":"Mississippi\\Sunflower","number":2005168,"lon":-90.5901,"lat":33.6062},{"place":"Mississippi\\Tallahatchie","number":2177561,"lon":-90.1737,"lat":33.9535},{"place":"Mississippi\\Tate","number":325546,"lon":-89.9482,"lat":34.6553},{"place":"Mississippi\\Tippah","number":284076,"lon":-88.9108,"lat":34.7687},{"place":"Mississippi\\Tishomingo","number":49200,"lon":-88.2445,"lat":34.7439},{"place":"Mississippi\\Tunica","number":847531,"lon":-90.3677,"lat":34.6485},{"place":"Mississippi\\Union","number":13551,"lon":-89.0051,"lat":34.4922},{"place":"Mississippi\\Walthall","number":16621,"lon":-90.1115,"lat":31.1498},{"place":"Mississippi\\Warren","number":396721,"lon":-90.8485,"lat":32.3648},{"place":"Mississippi\\Washington","number":1651801,"lon":-90.9532,"lat":33.2783},{"place":"Mississippi\\Webster","number":16760,"lon":-89.2838,"lat":33.6128},{"place":"Mississippi\\Yazoo","number":885673,"lon":-90.4039,"lat":32.7874},{"place":"Missouri\\Adair","number":96595,"lon":-92.5873,"lat":40.1968},{"place":"Missouri\\Andrew","number":107905,"lon":-94.799,"lat":39.9967},{"place":"Missouri\\Audrain","number":1225471,"lon":-91.8295,"lat":39.2124},{"place":"Missouri\\Barry","number":42511,"lon":-93.8415,"lat":36.7153},{"place":"Missouri\\Barton","number":2564437,"lon":-94.3543,"lat":37.5088},{"place":"Missouri\\Bates","number":1170422,"lon":-94.3446,"lat":38.2577},{"place":"Missouri\\Benton","number":215892,"lon":-93.2915,"lat":38.3014},{"place":"Missouri\\Bollinger","number":185640,"lon":-90.0308,"lat":37.3195},{"place":"Missouri\\Boone","number":426816,"lon":-92.2994,"lat":38.9861},{"place":"Missouri\\Buchanan","number":96127,"lon":-94.8103,"lat":39.6701},{"place":"Missouri\\Butler","number":695000,"lon":-90.4135,"lat":36.7207},{"place":"Missouri\\Caldwell","number":326140,"lon":-93.9828,"lat":39.6632},{"place":"Missouri\\Cape Girardeau","number":789219,"lon":-89.6813,"lat":37.38},{"place":"Missouri\\Carroll","number":329085,"lon":-93.515,"lat":39.4337},{"place":"Missouri\\Cass","number":448655,"lon":-94.3567,"lat":38.6457},{"place":"Missouri\\Cedar","number":64633,"lon":-93.8621,"lat":37.7217},{"place":"Missouri\\Chariton","number":449242,"lon":-92.9515,"lat":39.5175},{"place":"Missouri\\Christian","number":25690,"lon":-93.1934,"lat":36.9697},{"place":"Missouri\\Clark","number":194720,"lon":-91.7201,"lat":40.417},{"place":"Missouri\\Clay","number":57359,"lon":-94.4189,"lat":39.3199},{"place":"Missouri\\Clinton","number":38709,"lon":-94.4037,"lat":39.6116},{"place":"Missouri\\Cole","number":61317,"lon":-92.2745,"lat":38.5022},{"place":"Missouri\\Cooper","number":1035932,"lon":-92.8034,"lat":38.8437},{"place":"Missouri\\Crawford","number":8250,"lon":-91.3047,"lat":37.9706},{"place":"Missouri\\Dade","number":1228242,"lon":-93.8525,"lat":37.4352},{"place":"Missouri\\Dallas","number":46343,"lon":-93.0291,"lat":37.6774},{"place":"Missouri\\Daviess","number":152221,"lon":-93.9833,"lat":39.9707},{"place":"Missouri\\DeKalb","number":159650,"lon":-94.4011,"lat":39.9008},{"place":"Missouri\\Dunklin","number":1100502,"lon":-90.0885,"lat":36.2785},{"place":"Missouri\\Franklin","number":133608,"lon":-91.0731,"lat":38.4092},{"place":"Missouri\\Gasconade","number":45288,"lon":-91.5066,"lat":38.442},{"place":"Missouri\\Greene","number":80823,"lon":-93.3488,"lat":37.2581},{"place":"Missouri\\Grundy","number":198801,"lon":-93.5618,"lat":40.1228},{"place":"Missouri\\Harrison","number":93819,"lon":-93.9929,"lat":40.3701},{"place":"Missouri\\Henry","number":1067399,"lon":-93.7967,"lat":38.39},{"place":"Missouri\\Hickory","number":91332,"lon":-93.3228,"lat":37.9465},{"place":"Missouri\\Holt","number":27363,"lon":-95.2097,"lat":40.1057},{"place":"Missouri\\Howard","number":251471,"lon":-92.6825,"lat":39.1427},{"place":"Missouri\\Howell","number":8176,"lon":-91.8922,"lat":36.7723},{"place":"Missouri\\Iron","number":1197,"lon":-90.7823,"lat":37.5512},{"place":"Missouri\\Jackson","number":154299,"lon":-94.3487,"lat":39.0103},{"place":"Missouri\\Jasper","number":1299231,"lon":-94.3515,"lat":37.2156},{"place":"Missouri\\Jefferson","number":54118,"lon":-90.5418,"lat":38.256},{"place":"Missouri\\Knox","number":260889,"lon":-92.1328,"lat":40.1324},{"place":"Missouri\\Laclede","number":17908,"lon":-92.5878,"lat":37.6557},{"place":"Missouri\\Lafayette","number":282777,"lon":-93.7844,"lat":39.0658},{"place":"Missouri\\Lawrence","number":324847,"lon":-93.8363,"lat":37.1125},{"place":"Missouri\\Lewis","number":306606,"lon":-91.7073,"lat":40.0985},{"place":"Missouri\\Lincoln","number":602692,"lon":-90.965,"lat":39.055},{"place":"Missouri\\Linn","number":285484,"lon":-93.1056,"lat":39.8706},{"place":"Missouri\\Livingston","number":257959,"lon":-93.55,"lat":39.7926},{"place":"Missouri\\McDonald","number":69235,"lon":-94.3606,"lat":36.6385},{"place":"Missouri\\Macon","number":312519,"lon":-92.5481,"lat":39.8324},{"place":"Missouri\\Maries","number":20040,"lon":-91.9188,"lat":38.1609},{"place":"Missouri\\Marion","number":366814,"lon":-91.613,"lat":39.8033},{"place":"Missouri\\Mercer","number":47175,"lon":-93.5675,"lat":40.4368},{"place":"Missouri\\Miller","number":27052,"lon":-92.4204,"lat":38.2119},{"place":"Missouri\\Mississippi","number":2555114,"lon":-89.2734,"lat":36.8288},{"place":"Missouri\\Moniteau","number":234265,"lon":-92.5778,"lat":38.6311},{"place":"Missouri\\Monroe","number":398007,"lon":-91.9843,"lat":39.492},{"place":"Missouri\\Montgomery","number":874743,"lon":-91.4626,"lat":38.9347},{"place":"Missouri\\Morgan","number":293696,"lon":-92.8833,"lat":38.4225},{"place":"Missouri\\New Madrid","number":1091854,"lon":-89.6436,"lat":36.5946},{"place":"Missouri\\Newton","number":270095,"lon":-94.3487,"lat":36.918},{"place":"Missouri\\Nodaway","number":94569,"lon":-94.8842,"lat":40.3789},{"place":"Missouri\\Oregon","number":6410,"lon":-91.4172,"lat":36.6844},{"place":"Missouri\\Osage","number":52340,"lon":-91.8544,"lat":38.4613},{"place":"Missouri\\Pemiscot","number":900806,"lon":-89.789,"lat":36.2125},{"place":"Missouri\\Perry","number":740004,"lon":-89.829,"lat":37.7034},{"place":"Missouri\\Pettis","number":777810,"lon":-93.2828,"lat":38.7306},{"place":"Missouri\\Pike","number":473908,"lon":-91.1674,"lat":39.3361},{"place":"Missouri\\Platte","number":41628,"lon":-94.7719,"lat":39.3892},{"place":"Missouri\\Putnam","number":4810,"lon":-93.0108,"lat":40.4922},{"place":"Missouri\\Ralls","number":430483,"lon":-91.509,"lat":39.5236},{"place":"Missouri\\Randolph","number":273302,"lon":-92.4769,"lat":39.438},{"place":"Missouri\\Ray","number":96602,"lon":-93.9923,"lat":39.356},{"place":"Missouri\\Ripley","number":41938,"lon":-90.8731,"lat":36.6507},{"place":"Missouri\\St. Charles","number":234841,"lon":-90.6706,"lat":38.7828},{"place":"Missouri\\St. Clair","number":362757,"lon":-93.7822,"lat":38.0388},{"place":"Missouri\\St. Francois","number":15882,"lon":-90.4757,"lat":37.8066},{"place":"Missouri\\St. Louis","number":86353,"lon":-90.4492,"lat":38.6415},{"place":"Missouri\\Ste. Genevieve","number":207193,"lon":-90.1945,"lat":37.8888},{"place":"Missouri\\Saline","number":259861,"lon":-93.1956,"lat":39.1406},{"place":"Missouri\\Schuyler","number":12600,"lon":-92.5074,"lat":40.4803},{"place":"Missouri\\Scotland","number":88794,"lon":-92.1344,"lat":40.4636},{"place":"Missouri\\Scott","number":1989439,"lon":-89.5647,"lat":37.0513},{"place":"Missouri\\Shelby","number":389028,"lon":-92.0538,"lat":39.796},{"place":"Missouri\\Stoddard","number":1779022,"lon":-89.9469,"lat":36.8566},{"place":"Missouri\\Sullivan","number":60302,"lon":-93.1045,"lat":40.2128},{"place":"Missouri\\Texas","number":10760,"lon":-91.9676,"lat":37.3135},{"place":"Missouri\\Vernon","number":1234226,"lon":-94.3509,"lat":37.8528},{"place":"Missouri\\Warren","number":163088,"lon":-91.1471,"lat":38.7591},{"place":"Missouri\\Wayne","number":15161,"lon":-90.4747,"lat":37.1103},{"place":"Missouri\\Webster","number":35501,"lon":-92.8807,"lat":37.2812},{"place":"Missouri\\Worth","number":5816,"lon":-94.4252,"lat":40.494},{"place":"Missouri\\Wright","number":5921,"lon":-92.4698,"lat":37.2674},{"place":"Montana\\Big Horn","number":2912858,"lon":-107.4895,"lat":45.4231},{"place":"Montana\\Blaine","number":3312949,"lon":-108.9576,"lat":48.43},{"place":"Montana\\Broadwater","number":201770,"lon":-111.4942,"lat":46.3302},{"place":"Montana\\Carbon","number":144614,"lon":-109.0336,"lat":45.2246},{"place":"Montana\\Carter","number":614570,"lon":-104.5331,"lat":45.5212},{"place":"Montana\\Cascade","number":3810867,"lon":-111.3365,"lat":47.3026},{"place":"Montana\\Chouteau","number":16050870,"lon":-110.4276,"lat":47.8763},{"place":"Montana\\Custer","number":320685,"lon":-105.549,"lat":46.2576},{"place":"Montana\\Daniels","number":513662,"lon":-105.5389,"lat":48.7857},{"place":"Montana\\Dawson","number":1323548,"lon":-104.8876,"lat":47.2666},{"place":"Montana\\Fallon","number":530919,"lon":-104.409,"lat":46.3368},{"place":"Montana\\Fergus","number":5118903,"lon":-109.2174,"lat":47.2638},{"place":"Montana\\Flathead","number":451383,"lon":-114.0398,"lat":48.2851},{"place":"Montana\\Gallatin","number":719272,"lon":-111.1759,"lat":45.5593},{"place":"Montana\\Garfield","number":1558978,"lon":-106.984,"lat":47.2826},{"place":"Montana\\Glacier","number":1672148,"lon":-112.9923,"lat":48.6953},{"place":"Montana\\Golden Valley","number":450306,"lon":-109.1751,"lat":46.3787},{"place":"Montana\\Hill","number":9349102,"lon":-110.1088,"lat":48.6217},{"place":"Montana\\Judith Basin","number":1546576,"lon":-110.2593,"lat":47.0341},{"place":"Montana\\Lake","number":166208,"lon":-114.0729,"lat":47.6406},{"place":"Montana\\Liberty","number":3984721,"lon":-111.0248,"lat":48.5524},{"place":"Montana\\McCone","number":3346949,"lon":-105.7844,"lat":47.6544},{"place":"Montana\\Madison","number":102905,"lon":-111.919,"lat":45.3046},{"place":"Montana\\Meagher","number":93920,"lon":-110.8892,"lat":46.5944},{"place":"Montana\\Musselshell","number":398190,"lon":-108.3969,"lat":46.4926},{"place":"Montana\\Park","number":156241,"lon":-110.524,"lat":45.5169},{"place":"Montana\\Petroleum","number":947151,"lon":-108.2459,"lat":47.1187},{"place":"Montana\\Pondera","number":2800074,"lon":-112.2151,"lat":48.22},{"place":"Montana\\Powder River","number":389489,"lon":-105.6101,"lat":45.3984},{"place":"Montana\\Prairie","number":426193,"lon":-105.3588,"lat":46.8644},{"place":"Montana\\Ravalli","number":25187,"lon":-114.1163,"lat":46.0799},{"place":"Montana\\Richland","number":827206,"lon":-104.5657,"lat":47.7891},{"place":"Montana\\Roosevelt","number":1546546,"lon":-105.0024,"lat":48.2965},{"place":"Montana\\Rosebud","number":580540,"lon":-106.7118,"lat":46.2275},{"place":"Montana\\Sanders","number":6792,"lon":-115.1317,"lat":47.6731},{"place":"Montana\\Sheridan","number":386662,"lon":-104.5023,"lat":48.7233},{"place":"Montana\\Stillwater","number":498800,"lon":-109.3977,"lat":45.6696},{"place":"Montana\\Sweet Grass","number":28658,"lon":-109.9442,"lat":45.8156},{"place":"Montana\\Teton","number":3796476,"lon":-112.2246,"lat":47.8312},{"place":"Montana\\Toole","number":1102290,"lon":-111.6957,"lat":48.6568},{"place":"Montana\\Treasure","number":145271,"lon":-107.2559,"lat":46.2103},{"place":"Montana\\Valley","number":1660384,"lon":-106.6625,"lat":48.3715},{"place":"Montana\\Wheatland","number":417337,"lon":-109.8467,"lat":46.4605},{"place":"Montana\\Wibaux","number":464575,"lon":-104.2429,"lat":46.9648},{"place":"Montana\\Yellowstone","number":1403155,"lon":-108.2676,"lat":45.9388},{"place":"Nebraska\\Adams","number":198281,"lon":-98.5103,"lat":40.5188},{"place":"Nebraska\\Antelope","number":40461,"lon":-98.0702,"lat":42.1567},{"place":"Nebraska\\Banner","number":1593220,"lon":-103.7052,"lat":41.5495},{"place":"Nebraska\\Boone","number":14254,"lon":-98.0714,"lat":41.6941},{"place":"Nebraska\\Box Butte","number":3681044,"lon":-103.0763,"lat":42.2199},{"place":"Nebraska\\Boyd","number":209253,"lon":-98.7579,"lat":42.8939},{"place":"Nebraska\\Buffalo","number":231018,"lon":-99.08,"lat":40.8522},{"place":"Nebraska\\Butler","number":42506,"lon":-97.1264,"lat":41.2164},{"place":"Nebraska\\Cass","number":56155,"lon":-96.1434,"lat":40.8993},{"place":"Nebraska\\Cedar","number":39816,"lon":-97.2503,"lat":42.5887},{"place":"Nebraska\\Chase","number":1518715,"lon":-101.7047,"lat":40.5217},{"place":"Nebraska\\Clay","number":107446,"lon":-98.0652,"lat":40.5153},{"place":"Nebraska\\Colfax","number":13448,"lon":-97.084,"lat":41.5639},{"place":"Nebraska\\Dawes","number":1062866,"lon":-103.1318,"lat":42.7137},{"place":"Nebraska\\Dawson","number":173785,"lon":-99.8237,"lat":40.8687},{"place":"Nebraska\\Dixon","number":16538,"lon":-96.8622,"lat":42.4785},{"place":"Nebraska\\Dodge","number":5354,"lon":-96.6496,"lat":41.565},{"place":"Nebraska\\Douglas","number":7737,"lon":-96.1389,"lat":41.2812},{"place":"Nebraska\\Dundy","number":1503420,"lon":-101.6896,"lat":40.1787},{"place":"Nebraska\\Fillmore","number":106702,"lon":-97.6048,"lat":40.5142},{"place":"Nebraska\\Franklin","number":391831,"lon":-98.9508,"lat":40.1769},{"place":"Nebraska\\Frontier","number":1245193,"lon":-100.3933,"lat":40.5297},{"place":"Nebraska\\Furnas","number":2924561,"lon":-99.9081,"lat":40.179},{"place":"Nebraska\\Garden","number":1054710,"lon":-102.3325,"lat":41.6196},{"place":"Nebraska\\Gosper","number":459276,"lon":-99.8348,"lat":40.5162},{"place":"Nebraska\\Greeley","number":4332,"lon":-98.5247,"lat":41.563},{"place":"Nebraska\\Hall","number":29922,"lon":-98.5137,"lat":40.8691},{"place":"Nebraska\\Hamilton","number":52352,"lon":-98.0335,"lat":40.8657},{"place":"Nebraska\\Harlan","number":1170127,"lon":-99.4039,"lat":40.1747},{"place":"Nebraska\\Hayes","number":1147506,"lon":-101.0597,"lat":40.5256},{"place":"Nebraska\\Hitchcock","number":2460470,"lon":-101.0411,"lat":40.1821},{"place":"Nebraska\\Kearney","number":264884,"lon":-98.9533,"lat":40.504},{"place":"Nebraska\\Keith","number":1735642,"lon":-101.6669,"lat":41.1981},{"place":"Nebraska\\Kimball","number":2866523,"lon":-103.7138,"lat":41.2004},{"place":"Nebraska\\Lincoln","number":563887,"lon":-100.751,"lat":41.0467},{"place":"Nebraska\\Logan","number":25213,"lon":-100.4796,"lat":41.5702},{"place":"Nebraska\\Loup","number":4587,"lon":-99.4577,"lat":41.9129},{"place":"Nebraska\\Merrick","number":58255,"lon":-98.054,"lat":41.1588},{"place":"Nebraska\\Nance","number":120294,"lon":-97.9963,"lat":41.3928},{"place":"Nebraska\\Nemaha","number":161685,"lon":-95.8541,"lat":40.3853},{"place":"Nebraska\\Otoe","number":164512,"lon":-96.1364,"lat":40.6358},{"place":"Nebraska\\Pawnee","number":227864,"lon":-96.244,"lat":40.1288},{"place":"Nebraska\\Perkins","number":2957118,"lon":-101.6603,"lat":40.8491},{"place":"Nebraska\\Phelps","number":147339,"lon":-99.4191,"lat":40.5106},{"place":"Nebraska\\Pierce","number":11220,"lon":-97.6014,"lat":42.2482},{"place":"Nebraska\\Polk","number":16347,"lon":-97.5742,"lat":41.1807},{"place":"Nebraska\\Red Willow","number":3020588,"lon":-100.4723,"lat":40.1784},{"place":"Nebraska\\Richardson","number":119401,"lon":-95.7176,"lat":40.1318},{"place":"Nebraska\\Saline","number":349431,"lon":-97.1427,"lat":40.5114},{"place":"Nebraska\\Sarpy","number":4600,"lon":-96.1129,"lat":41.1036},{"place":"Nebraska\\Saunders","number":62826,"lon":-96.6328,"lat":41.2135},{"place":"Nebraska\\Seward","number":65250,"lon":-97.1393,"lat":40.8605},{"place":"Nebraska\\Sheridan","number":1176634,"lon":-102.4021,"lat":42.5049},{"place":"Nebraska\\Sioux","number":228951,"lon":-103.7612,"lat":42.4856},{"place":"Nebraska\\Thayer","number":640506,"lon":-97.5991,"lat":40.1711},{"place":"Nebraska\\Washington","number":15271,"lon":-96.2152,"lat":41.5153},{"place":"Nebraska\\Webster","number":672198,"lon":-98.5056,"lat":40.1733},{"place":"Nebraska\\Wheeler","number":4150,"lon":-98.5266,"lat":41.9108},{"place":"Nevada\\Churchill","number":4384,"lon":-118.3512,"lat":39.5777},{"place":"Nevada\\Humboldt","number":702903,"lon":-118.1096,"lat":41.4129},{"place":"New Jersey\\Atlantic","number":15513,"lon":-74.6742,"lat":39.4806},{"place":"New Jersey\\Burlington","number":151202,"lon":-74.6658,"lat":39.8845},{"place":"New Jersey\\Cumberland","number":325755,"lon":-75.1112,"lat":39.3706},{"place":"New Jersey\\Gloucester","number":190367,"lon":-75.1374,"lat":39.7149},{"place":"New Jersey\\Hunterdon","number":90813,"lon":-74.914,"lat":40.5731},{"place":"New Jersey\\Mercer","number":17926,"lon":-74.6945,"lat":40.2863},{"place":"New Jersey\\Monmouth","number":54470,"lon":-74.209,"lat":40.2612},{"place":"New Jersey\\Salem","number":428472,"lon":-75.3428,"lat":39.5932},{"place":"New Jersey\\Somerset","number":56386,"lon":-74.6224,"lat":40.5677},{"place":"New Jersey\\Warren","number":52845,"lon":-75.0017,"lat":40.8624},{"place":"New Mexico\\Bernalillo","number":24,"lon":-106.6767,"lat":35.0469},{"place":"New Mexico\\Chaves","number":64765,"lon":-104.4653,"lat":33.3586},{"place":"New Mexico\\Curry","number":732179,"lon":-103.3511,"lat":34.5753},{"place":"New Mexico\\Dona Ana","number":62588,"lon":-106.8417,"lat":32.3465},{"place":"New Mexico\\Eddy","number":29491,"lon":-104.303,"lat":32.4669},{"place":"New Mexico\\Harding","number":23889,"lon":-103.8148,"lat":35.8524},{"place":"New Mexico\\Lea","number":193778,"lon":-103.4124,"lat":32.7828},{"place":"New Mexico\\Quay","number":132899,"lon":-103.5449,"lat":35.1017},{"place":"New Mexico\\Torrance","number":35218,"lon":-105.8466,"lat":34.6313},{"place":"New Mexico\\Union","number":183778,"lon":-103.4741,"lat":36.4749},{"place":"New York\\Cattaraugus","number":45468,"lon":-78.6772,"lat":42.2497},{"place":"New York\\Columbia","number":26790,"lon":-73.6371,"lat":42.2526},{"place":"New York\\Franklin","number":906,"lon":-74.3067,"lat":44.5914},{"place":"New York\\Genesee","number":573771,"lon":-78.1981,"lat":42.9996},{"place":"New York\\Herkimer","number":7750,"lon":-74.9722,"lat":43.4141},{"place":"New York\\Jefferson","number":100090,"lon":-75.9163,"lat":44.0317},{"place":"New York\\Monroe","number":440707,"lon":-77.7019,"lat":43.1431},{"place":"New York\\Onondaga","number":241811,"lon":-76.1939,"lat":43.0047},{"place":"New York\\Orleans","number":351518,"lon":-78.2343,"lat":43.2473},{"place":"New York\\Oswego","number":1000,"lon":-76.1464,"lat":43.4284},{"place":"New York\\Rensselaer","number":6053,"lon":-73.5104,"lat":42.7119},{"place":"New York\\St. Lawrence","number":6540,"lon":-75.0706,"lat":44.4975},{"place":"New York\\Schuyler","number":44764,"lon":-76.8773,"lat":42.395},{"place":"New York\\Seneca","number":265715,"lon":-76.8332,"lat":42.774},{"place":"New York\\Wayne","number":162303,"lon":-77.0352,"lat":43.1594},{"place":"New York\\Yates","number":228389,"lon":-77.1196,"lat":42.6319},{"place":"North Carolina\\Alamance","number":229167,"lon":-79.3997,"lat":36.0354},{"place":"North Carolina\\Alexander","number":64935,"lon":-81.1784,"lat":35.9349},{"place":"North Carolina\\Anson","number":232183,"lon":-80.1036,"lat":34.9771},{"place":"North Carolina\\Beaufort","number":1993597,"lon":-76.8708,"lat":35.4959},{"place":"North Carolina\\Bertie","number":617531,"lon":-76.9847,"lat":36.0666},{"place":"North Carolina\\Bladen","number":215272,"lon":-78.5518,"lat":34.6139},{"place":"North Carolina\\Brunswick","number":214730,"lon":-78.2425,"lat":34.0776},{"place":"North Carolina\\Burke","number":23260,"lon":-81.7139,"lat":35.7584},{"place":"North Carolina\\Cabarrus","number":198475,"lon":-80.5603,"lat":35.386},{"place":"North Carolina\\Caldwell","number":31175,"lon":-81.5561,"lat":35.9593},{"place":"North Carolina\\Camden","number":846392,"lon":-76.2219,"lat":36.3958},{"place":"North Carolina\\Carteret","number":65238,"lon":-76.6829,"lat":34.8391},{"place":"North Carolina\\Caswell","number":76159,"lon":-79.322,"lat":36.3878},{"place":"North Carolina\\Catawba","number":275702,"lon":-81.2121,"lat":35.6665},{"place":"North Carolina\\Chatham","number":49433,"lon":-79.2416,"lat":35.7022},{"place":"North Carolina\\Cherokee","number":6300,"lon":-84.0644,"lat":35.132},{"place":"North Carolina\\Chowan","number":580500,"lon":-76.5985,"lat":36.1507},{"place":"North Carolina\\Cleveland","number":555314,"lon":-81.5607,"lat":35.3428},{"place":"North Carolina\\Columbus","number":888838,"lon":-78.6345,"lat":34.2652},{"place":"North Carolina\\Craven","number":441615,"lon":-77.0981,"lat":35.1335},{"place":"North Carolina\\Cumberland","number":333974,"lon":-78.8301,"lat":35.0474},{"place":"North Carolina\\Currituck","number":669648,"lon":-75.9466,"lat":36.523},{"place":"North Carolina\\Davidson","number":208712,"lon":-80.2063,"lat":35.7913},{"place":"North Carolina\\Davie","number":238217,"lon":-80.5393,"lat":35.9291},{"place":"North Carolina\\Duplin","number":1625090,"lon":-77.9251,"lat":34.9398},{"place":"North Carolina\\Durham","number":32607,"lon":-78.8829,"lat":36.0298},{"place":"North Carolina\\Edgecombe","number":565646,"lon":-77.5995,"lat":35.9086},{"place":"North Carolina\\Forsyth","number":65040,"lon":-80.2568,"lat":36.1266},{"place":"North Carolina\\Franklin","number":537140,"lon":-78.2784,"lat":36.0763},{"place":"North Carolina\\Gaston","number":81325,"lon":-81.1786,"lat":35.3052},{"place":"North Carolina\\Gates","number":744691,"lon":-76.6976,"lat":36.4445},{"place":"North Carolina\\Granville","number":93752,"lon":-78.6491,"lat":36.2976},{"place":"North Carolina\\Greene","number":634530,"lon":-77.6815,"lat":35.484},{"place":"North Carolina\\Halifax","number":318730,"lon":-77.6432,"lat":36.252},{"place":"North Carolina\\Harnett","number":431500,"lon":-78.8654,"lat":35.3689},{"place":"North Carolina\\Hoke","number":385770,"lon":-79.2378,"lat":34.9836},{"place":"North Carolina\\Hyde","number":1029040,"lon":-76.2457,"lat":35.5353},{"place":"North Carolina\\Iredell","number":591863,"lon":-80.8723,"lat":35.8069},{"place":"North Carolina\\Johnston","number":1057698,"lon":-78.3682,"lat":35.5152},{"place":"North Carolina\\Jones","number":352624,"lon":-77.3749,"lat":35.0324},{"place":"North Carolina\\Lee","number":59154,"lon":-79.1779,"lat":35.4691},{"place":"North Carolina\\Lenoir","number":866900,"lon":-77.6466,"lat":35.2566},{"place":"North Carolina\\Lincoln","number":244276,"lon":-81.2457,"lat":35.4942},{"place":"North Carolina\\Martin","number":401877,"lon":-77.1019,"lat":35.8397},{"place":"North Carolina\\Mecklenburg","number":31800,"lon":-80.8371,"lat":35.252},{"place":"North Carolina\\Montgomery","number":36052,"lon":-79.8964,"lat":35.3388},{"place":"North Carolina\\Moore","number":100601,"lon":-79.4496,"lat":35.2973},{"place":"North Carolina\\Nash","number":378382,"lon":-77.9821,"lat":35.9593},{"place":"North Carolina\\Northampton","number":749277,"lon":-77.398,"lat":36.4174},{"place":"North Carolina\\Onslow","number":373364,"lon":-77.4334,"lat":34.7395},{"place":"North Carolina\\Orange","number":88806,"lon":-79.1274,"lat":36.0548},{"place":"North Carolina\\Pamlico","number":834637,"lon":-76.7327,"lat":35.1455},{"place":"North Carolina\\Pasquotank","number":887000,"lon":-76.2833,"lat":36.3002},{"place":"North Carolina\\Pender","number":224510,"lon":-77.9044,"lat":34.5307},{"place":"North Carolina\\Perquimans","number":1552523,"lon":-76.4411,"lat":36.2099},{"place":"North Carolina\\Person","number":479376,"lon":-78.9704,"lat":36.3833},{"place":"North Carolina\\Pitt","number":1145439,"lon":-77.3805,"lat":35.5964},{"place":"North Carolina\\Richmond","number":72724,"lon":-79.7369,"lat":35.0041},{"place":"North Carolina\\Rockingham","number":194076,"lon":-79.7675,"lat":36.3951},{"place":"North Carolina\\Rowan","number":570927,"lon":-80.5269,"lat":35.6418},{"place":"North Carolina\\Rutherford","number":33930,"lon":-81.9277,"lat":35.4072},{"place":"North Carolina\\Sampson","number":1943644,"lon":-78.3676,"lat":34.9882},{"place":"North Carolina\\Scotland","number":388196,"lon":-79.4646,"lat":34.8325},{"place":"North Carolina\\Stanly","number":489272,"lon":-80.2574,"lat":35.3159},{"place":"North Carolina\\Stokes","number":38716,"lon":-80.2378,"lat":36.4016},{"place":"North Carolina\\Surry","number":185134,"lon":-80.689,"lat":36.4153},{"place":"North Carolina\\Tyrrell","number":1027340,"lon":-76.2129,"lat":35.8104},{"place":"North Carolina\\Union","number":2820128,"lon":-80.5362,"lat":34.9878},{"place":"North Carolina\\Vance","number":149037,"lon":-78.4017,"lat":36.3606},{"place":"North Carolina\\Wake","number":423105,"lon":-78.6495,"lat":35.7865},{"place":"North Carolina\\Warren","number":181830,"lon":-78.0963,"lat":36.3871},{"place":"North Carolina\\Washington","number":846138,"lon":-76.5774,"lat":35.8175},{"place":"North Carolina\\Wilson","number":590122,"lon":-77.9205,"lat":35.7005},{"place":"North Carolina\\Yadkin","number":276042,"lon":-80.6634,"lat":36.1617},{"place":"North Dakota\\Adams","number":782629,"lon":-102.5205,"lat":46.0947},{"place":"North Dakota\\Barnes","number":174409,"lon":-98.066,"lat":46.9327},{"place":"North Dakota\\Benson","number":559558,"lon":-99.3727,"lat":48.0728},{"place":"North Dakota\\Billings","number":768447,"lon":-103.3696,"lat":47.0259},{"place":"North Dakota\\Bottineau","number":3231595,"lon":-100.8303,"lat":48.7916},{"place":"North Dakota\\Bowman","number":446339,"lon":-103.5133,"lat":46.1072},{"place":"North Dakota\\Burke","number":935886,"lon":-102.511,"lat":48.7941},{"place":"North Dakota\\Burleigh","number":861666,"lon":-100.4607,"lat":46.979},{"place":"North Dakota\\Cass","number":99280,"lon":-97.2383,"lat":46.9298},{"place":"North Dakota\\Cavalier","number":1042608,"lon":-98.4501,"lat":48.7733},{"place":"North Dakota\\Dickey","number":363596,"lon":-98.5006,"lat":46.1099},{"place":"North Dakota\\Divide","number":1217559,"lon":-103.4833,"lat":48.816},{"place":"North Dakota\\Dunn","number":928239,"lon":-102.6109,"lat":47.3565},{"place":"North Dakota\\Emmons","number":402254,"lon":-100.2259,"lat":46.2823},{"place":"North Dakota\\Foster","number":69874,"lon":-98.8811,"lat":47.4597},{"place":"North Dakota\\Golden Valley","number":1086287,"lon":-103.8453,"lat":46.9427},{"place":"North Dakota\\Grand Forks","number":130628,"lon":-97.4469,"lat":47.9202},{"place":"North Dakota\\Grant","number":662709,"lon":-101.6369,"lat":46.3589},{"place":"North Dakota\\Griggs","number":120440,"lon":-98.2257,"lat":47.4562},{"place":"North Dakota\\Hettinger","number":1578916,"lon":-102.4524,"lat":46.4311},{"place":"North Dakota\\Kidder","number":423101,"lon":-99.7777,"lat":46.9789},{"place":"North Dakota\\LaMoure","number":94730,"lon":-98.5331,"lat":46.4563},{"place":"North Dakota\\Logan","number":152192,"lon":-99.47,"lat":46.4575},{"place":"North Dakota\\McHenry","number":1131732,"lon":-100.6334,"lat":48.2356},{"place":"North Dakota\\McIntosh","number":610375,"lon":-99.4325,"lat":46.1115},{"place":"North Dakota\\McKenzie","number":553862,"lon":-103.3918,"lat":47.7401},{"place":"North Dakota\\McLean","number":2153151,"lon":-101.3121,"lat":47.6079},{"place":"North Dakota\\Mercer","number":391360,"lon":-101.8278,"lat":47.3056},{"place":"North Dakota\\Morton","number":372018,"lon":-101.2753,"lat":46.7179},{"place":"North Dakota\\Mountrail","number":1507031,"lon":-102.35,"lat":48.2028},{"place":"North Dakota\\Nelson","number":486221,"lon":-98.1861,"lat":47.9237},{"place":"North Dakota\\Oliver","number":41820,"lon":-101.3279,"lat":47.115},{"place":"North Dakota\\Pembina","number":490041,"lon":-97.5412,"lat":48.7701},{"place":"North Dakota\\Pierce","number":426627,"lon":-99.9696,"lat":48.2516},{"place":"North Dakota\\Ramsey","number":464648,"lon":-98.7219,"lat":48.2679},{"place":"North Dakota\\Ransom","number":99445,"lon":-97.652,"lat":46.454},{"place":"North Dakota\\Renville","number":2882373,"lon":-101.6583,"lat":48.7189},{"place":"North Dakota\\Richland","number":18600,"lon":-96.9399,"lat":46.2675},{"place":"North Dakota\\Rolette","number":630699,"lon":-99.8425,"lat":48.775},{"place":"North Dakota\\Sargent","number":90426,"lon":-97.6236,"lat":46.1096},{"place":"North Dakota\\Sheridan","number":237686,"lon":-100.3382,"lat":47.5777},{"place":"North Dakota\\Slope","number":225634,"lon":-103.4543,"lat":46.4453},{"place":"North Dakota\\Stark","number":2343232,"lon":-102.6529,"lat":46.8076},{"place":"North Dakota\\Steele","number":170557,"lon":-97.7116,"lat":47.4515},{"place":"North Dakota\\Stutsman","number":262038,"lon":-98.9582,"lat":46.9804},{"place":"North Dakota\\Towner","number":674774,"lon":-99.2457,"lat":48.6871},{"place":"North Dakota\\Traill","number":339358,"lon":-97.1499,"lat":47.4529},{"place":"North Dakota\\Walsh","number":535626,"lon":-97.7186,"lat":48.3714},{"place":"North Dakota\\Ward","number":4064340,"lon":-101.5381,"lat":48.2212},{"place":"North Dakota\\Wells","number":147667,"lon":-99.6635,"lat":47.5901},{"place":"North Dakota\\Williams","number":1076263,"lon":-103.4787,"lat":48.3426},{"place":"Ohio\\Adams","number":78505,"lon":-83.4636,"lat":38.8566},{"place":"Ohio\\Allen","number":517704,"lon":-84.1083,"lat":40.7767},{"place":"Ohio\\Ashland","number":369561,"lon":-82.2692,"lat":40.8612},{"place":"Ohio\\Ashtabula","number":58542,"lon":-80.7565,"lat":41.7102},{"place":"Ohio\\Auglaize","number":995261,"lon":-84.2219,"lat":40.5642},{"place":"Ohio\\Brown","number":70596,"lon":-83.8686,"lat":38.9389},{"place":"Ohio\\Butler","number":199043,"lon":-84.5743,"lat":39.4465},{"place":"Ohio\\Carroll","number":56820,"lon":-81.0831,"lat":40.593},{"place":"Ohio\\Champaign","number":273352,"lon":-83.7671,"lat":40.147},{"place":"Ohio\\Clark","number":148658,"lon":-83.7855,"lat":39.9229},{"place":"Ohio\\Clermont","number":47250,"lon":-84.1516,"lat":39.0597},{"place":"Ohio\\Clinton","number":154392,"lon":-83.8068,"lat":39.4239},{"place":"Ohio\\Columbiana","number":269859,"lon":-80.7725,"lat":40.7822},{"place":"Ohio\\Coshocton","number":75149,"lon":-81.9197,"lat":40.3162},{"place":"Ohio\\Crawford","number":858633,"lon":-82.9151,"lat":40.8611},{"place":"Ohio\\Darke","number":882676,"lon":-84.6249,"lat":40.1371},{"place":"Ohio\\Defiance","number":729195,"lon":-84.4944,"lat":41.3292},{"place":"Ohio\\Delaware","number":192229,"lon":-82.9935,"lat":40.2883},{"place":"Ohio\\Erie","number":442495,"lon":-82.6249,"lat":41.3782},{"place":"Ohio\\Fairfield","number":415281,"lon":-82.6212,"lat":39.7569},{"place":"Ohio\\Fayette","number":316841,"lon":-83.4475,"lat":39.5652},{"place":"Ohio\\Franklin","number":115766,"lon":-82.9995,"lat":39.9775},{"place":"Ohio\\Fulton","number":953566,"lon":-84.1322,"lat":41.6139},{"place":"Ohio\\Gallia","number":1450,"lon":-82.3207,"lat":38.8388},{"place":"Ohio\\Geauga","number":21212,"lon":-81.1798,"lat":41.5181},{"place":"Ohio\\Greene","number":177889,"lon":-83.8886,"lat":39.6966},{"place":"Ohio\\Guernsey","number":3648,"lon":-81.4896,"lat":40.0653},{"place":"Ohio\\Hamilton","number":3513,"lon":-84.5458,"lat":39.2009},{"place":"Ohio\\Hancock","number":1130761,"lon":-83.6672,"lat":41.0111},{"place":"Ohio\\Hardin","number":432865,"lon":-83.658,"lat":40.6717},{"place":"Ohio\\Harrison","number":14392,"lon":-81.0848,"lat":40.3101},{"place":"Ohio\\Henry","number":1674316,"lon":-84.0725,"lat":41.3382},{"place":"Ohio\\Highland","number":358386,"lon":-83.6078,"lat":39.1899},{"place":"Ohio\\Hocking","number":7814,"lon":-82.4699,"lat":39.507},{"place":"Ohio\\Holmes","number":97057,"lon":-81.925,"lat":40.5736},{"place":"Ohio\\Huron","number":574328,"lon":-82.5993,"lat":41.1627},{"place":"Ohio\\Jackson","number":11127,"lon":-82.6099,"lat":39.0363},{"place":"Ohio\\Jefferson","number":4816,"lon":-80.7603,"lat":40.397},{"place":"Ohio\\Knox","number":187022,"lon":-82.4143,"lat":40.4135},{"place":"Ohio\\Lake","number":2564,"lon":-81.2333,"lat":41.713},{"place":"Ohio\\Lawrence","number":2290,"lon":-82.5343,"lat":38.618},{"place":"Ohio\\Licking","number":259116,"lon":-82.4775,"lat":40.1016},{"place":"Ohio\\Logan","number":303770,"lon":-83.7644,"lat":40.3979},{"place":"Ohio\\Lorain","number":80587,"lon":-82.1523,"lat":41.3022},{"place":"Ohio\\Lucas","number":277956,"lon":-83.6627,"lat":41.6338},{"place":"Ohio\\Madison","number":433549,"lon":-83.3999,"lat":39.897},{"place":"Ohio\\Mahoning","number":129716,"lon":-80.7751,"lat":41.023},{"place":"Ohio\\Marion","number":377118,"lon":-83.1575,"lat":40.597},{"place":"Ohio\\Medina","number":89856,"lon":-81.8922,"lat":41.1339},{"place":"Ohio\\Mercer","number":1285266,"lon":-84.6378,"lat":40.5435},{"place":"Ohio\\Miami","number":312602,"lon":-84.2284,"lat":40.0596},{"place":"Ohio\\Montgomery","number":119755,"lon":-84.2958,"lat":39.7624},{"place":"Ohio\\Morgan","number":5002,"lon":-81.8535,"lat":39.6346},{"place":"Ohio\\Morrow","number":502856,"lon":-82.7849,"lat":40.5408},{"place":"Ohio\\Muskingum","number":57263,"lon":-81.947,"lat":39.9791},{"place":"Ohio\\Ottawa","number":242292,"lon":-83.1438,"lat":41.5458},{"place":"Ohio\\Paulding","number":1207471,"lon":-84.5844,"lat":41.1231},{"place":"Ohio\\Perry","number":47190,"lon":-82.236,"lat":39.7457},{"place":"Ohio\\Pickaway","number":699195,"lon":-83.0151,"lat":39.6451},{"place":"Ohio\\Pike","number":45817,"lon":-83.0575,"lat":39.0888},{"place":"Ohio\\Portage","number":130755,"lon":-81.1985,"lat":41.1857},{"place":"Ohio\\Preble","number":347884,"lon":-84.6544,"lat":39.7499},{"place":"Ohio\\Putnam","number":1960194,"lon":-84.1385,"lat":41.0281},{"place":"Ohio\\Richland","number":353350,"lon":-82.5319,"lat":40.7909},{"place":"Ohio\\Ross","number":424721,"lon":-83.0484,"lat":39.3447},{"place":"Ohio\\Sandusky","number":528797,"lon":-83.1473,"lat":41.364},{"place":"Ohio\\Scioto","number":36560,"lon":-82.9818,"lat":38.8194},{"place":"Ohio\\Seneca","number":1072906,"lon":-83.1283,"lat":41.1299},{"place":"Ohio\\Shelby","number":752783,"lon":-84.2046,"lat":40.3383},{"place":"Ohio\\Stark","number":383080,"lon":-81.3575,"lat":40.8296},{"place":"Ohio\\Summit","number":8820,"lon":-81.5289,"lat":41.1392},{"place":"Ohio\\Trumbull","number":101251,"lon":-80.7627,"lat":41.3206},{"place":"Ohio\\Tuscarawas","number":112822,"lon":-81.4704,"lat":40.4562},{"place":"Ohio\\Union","number":517482,"lon":-83.3693,"lat":40.3072},{"place":"Ohio\\Van Wert","number":1110575,"lon":-84.592,"lat":40.8592},{"place":"Ohio\\Warren","number":145000,"lon":-84.1665,"lat":39.4344},{"place":"Ohio\\Washington","number":40677,"lon":-81.489,"lat":39.4722},{"place":"Ohio\\Wayne","number":451780,"lon":-81.8867,"lat":40.8435},{"place":"Ohio\\Williams","number":1031437,"lon":-84.5829,"lat":41.5698},{"place":"Ohio\\Wood","number":1508426,"lon":-83.6287,"lat":41.3709},{"place":"Ohio\\Wyandot","number":593568,"lon":-83.3014,"lat":40.8544},{"place":"Oklahoma\\Adair","number":3300,"lon":-94.6641,"lat":35.907},{"place":"Oklahoma\\Alfalfa","number":7579471,"lon":-98.3232,"lat":36.7309},{"place":"Oklahoma\\Beaver","number":2758976,"lon":-100.4747,"lat":36.7458},{"place":"Oklahoma\\Beckham","number":1279717,"lon":-99.6867,"lat":35.2696},{"place":"Oklahoma\\Blaine","number":4815086,"lon":-98.4244,"lat":35.8688},{"place":"Oklahoma\\Bryan","number":364773,"lon":-96.2558,"lat":33.9617},{"place":"Oklahoma\\Caddo","number":3844151,"lon":-98.3719,"lat":35.1778},{"place":"Oklahoma\\Canadian","number":5581429,"lon":-97.9754,"lat":35.5341},{"place":"Oklahoma\\Carter","number":28889,"lon":-97.2729,"lat":34.2547},{"place":"Oklahoma\\Cimarron","number":4967163,"lon":-102.5121,"lat":36.7374},{"place":"Oklahoma\\Cleveland","number":63987,"lon":-97.3299,"lat":35.2012},{"place":"Oklahoma\\Coal","number":21457,"lon":-96.2861,"lat":34.5953},{"place":"Oklahoma\\Comanche","number":1736645,"lon":-98.4692,"lat":34.6655},{"place":"Oklahoma\\Cotton","number":3257640,"lon":-98.3688,"lat":34.2918},{"place":"Oklahoma\\Craig","number":407711,"lon":-95.2161,"lat":36.7853},{"place":"Oklahoma\\Creek","number":76668,"lon":-96.3652,"lat":35.8984},{"place":"Oklahoma\\Custer","number":4684645,"lon":-98.9947,"lat":35.6356},{"place":"Oklahoma\\Delaware","number":105834,"lon":-94.8114,"lat":36.4331},{"place":"Oklahoma\\Dewey","number":2345814,"lon":-99.0026,"lat":35.9861},{"place":"Oklahoma\\Ellis","number":1167664,"lon":-99.7542,"lat":36.2086},{"place":"Oklahoma\\Garfield","number":10727789,"lon":-97.7785,"lat":36.3679},{"place":"Oklahoma\\Garvin","number":329511,"lon":-97.3024,"lat":34.7103},{"place":"Oklahoma\\Grady","number":1807410,"lon":-97.8801,"lat":35.014},{"place":"Oklahoma\\Grant","number":8973570,"lon":-97.7845,"lat":36.7907},{"place":"Oklahoma\\Greer","number":2607679,"lon":-99.5593,"lat":34.9428},{"place":"Oklahoma\\Harmon","number":1690791,"lon":-99.8463,"lat":34.7474},{"place":"Oklahoma\\Harper","number":1571724,"lon":-99.6719,"lat":36.7775},{"place":"Oklahoma\\Hughes","number":40854,"lon":-96.2385,"lat":35.0526},