[{"place":"Arizona\\Apache","number":9,"lon":-109.4911,"lat":35.4051},{"place":"Arizona\\Cochise","number":5316,"lon":-109.7629,"lat":31.8863},{"place":"Arizona\\Coconino","number":14,"lon":-111.7683,"lat":35.8339},{"place":"Arizona\\Graham","number":1430,"lon":-109.899,"lat":32.9344},{"place":"Arizona\\Navajo","number":104,"lon":-110.3228,"lat":35.3928},{"place":"Arizona\\Pinal","number":533,"lon":-111.3519,"lat":32.9067},{"place":"Arizona\\Yuma","number":2134,"lon":-113.9079,"lat":32.7798},{"place":"California\\Butte","number":745,"lon":-121.6008,"lat":39.6672},{"place":"California\\Colusa","number":3148,"lon":-122.2415,"lat":39.1827},{"place":"California\\El Dorado","number":4,"lon":-120.5285,"lat":38.7808},{"place":"California\\Fresno","number":5657,"lon":-119.641,"lat":36.7537},{"place":"California\\Glenn","number":1455,"lon":-122.3913,"lat":39.6051},{"place":"California\\Humboldt","number":29,"lon":-123.8754,"lat":40.7075},{"place":"California\\Kern","number":2096,"lon":-118.7287,"lat":35.3416},{"place":"California\\Kings","number":3765,"lon":-119.8055,"lat":36.0664},{"place":"California\\Madera","number":330,"lon":-119.7624,"lat":37.2136},{"place":"California\\Merced","number":892,"lon":-120.7211,"lat":37.1852},{"place":"California\\Monterey","number":1183,"lon":-121.2124,"lat":36.2088},{"place":"California\\Nevada","number":3,"lon":-120.7704,"lat":39.3041},{"place":"California\\San Joaquin","number":3742,"lon":-121.2678,"lat":37.9407},{"place":"California\\San Luis Obispo","number":196,"lon":-120.3724,"lat":35.3793},{"place":"California\\Santa Barbara","number":949,"lon":-120.011,"lat":34.7335},{"place":"California\\Solano","number":700,"lon":-121.9219,"lat":38.2789},{"place":"California\\Sonoma","number":11,"lon":-122.8763,"lat":38.5331},{"place":"California\\Stanislaus","number":1647,"lon":-120.9973,"lat":37.5578},{"place":"California\\Sutter","number":7073,"lon":-121.6902,"lat":39.0345},{"place":"California\\Tulare","number":2262,"lon":-118.792,"lat":36.2181},{"place":"California\\Tuolumne","number":5,"lon":-119.9556,"lat":38.0288},{"place":"California\\Yolo","number":2203,"lon":-121.9048,"lat":38.6917},{"place":"Colorado\\Boulder","number":5,"lon":-105.3542,"lat":40.0936},{"place":"Colorado\\Delta","number":854,"lon":-107.8767,"lat":38.8465},{"place":"Colorado\\Dolores","number":3869,"lon":-108.5002,"lat":37.7555},{"place":"Colorado\\La Plata","number":59,"lon":-107.8383,"lat":37.2827},{"place":"Colorado\\Larimer","number":826,"lon":-105.4688,"lat":40.6745},{"place":"Colorado\\Logan","number":1597,"lon":-103.1089,"lat":40.73},{"place":"Colorado\\Mesa","number":153,"lon":-108.4652,"lat":39.0183},{"place":"Colorado\\Montezuma","number":5531,"lon":-108.6086,"lat":37.3444},{"place":"Colorado\\Montrose","number":4651,"lon":-108.2772,"lat":38.3952},{"place":"Colorado\\Morgan","number":901,"lon":-103.8052,"lat":40.2724},{"place":"Colorado\\Phillips","number":2279,"lon":-102.3661,"lat":40.5969},{"place":"Colorado\\Pueblo","number":877,"lon":-104.507,"lat":38.1684},{"place":"Colorado\\Sedgwick","number":808,"lon":-102.359,"lat":40.8778},{"place":"Colorado\\Washington","number":458,"lon":-103.1988,"lat":39.977},{"place":"Colorado\\Weld","number":8196,"lon":-104.3899,"lat":40.5623},{"place":"Colorado\\Yuma","number":10045,"lon":-102.4246,"lat":40.0067},{"place":"Idaho\\Ada","number":1803,"lon":-116.2351,"lat":43.4466},{"place":"Idaho\\Canyon","number":12148,"lon":-116.7067,"lat":43.6199},{"place":"Idaho\\Cassia","number":8725,"lon":-113.6181,"lat":42.2889},{"place":"Idaho\\Elmore","number":1815,"lon":-115.4664,"lat":43.3551},{"place":"Idaho\\Franklin","number":996,"lon":-111.8197,"lat":42.18},{"place":"Idaho\\Gem","number":427,"lon":-116.3815,"lat":44.065},{"place":"Idaho\\Gooding","number":2871,"lon":-114.8165,"lat":42.9721},{"place":"Idaho\\Idaho","number":861,"lon":-115.4603,"lat":45.8317},{"place":"Idaho\\Jerome","number":9666,"lon":-114.2777,"lat":42.6922},{"place":"Idaho\\Kootenai","number":3200,"lon":-116.6851,"lat":47.6591},{"place":"Idaho\\Latah","number":24864,"lon":-116.6954,"lat":46.8057},{"place":"Idaho\\Lewis","number":6311,"lon":-116.4137,"lat":46.2297},{"place":"Idaho\\Minidoka","number":3809,"lon":-113.6409,"lat":42.8574},{"place":"Idaho\\Nez Perce","number":26708,"lon":-116.7332,"lat":46.3191},{"place":"Idaho\\Owyhee","number":3440,"lon":-116.177,"lat":42.5887},{"place":"Idaho\\Payette","number":1800,"lon":-116.7518,"lat":44.0032},{"place":"Idaho\\Twin Falls","number":27885,"lon":-114.6885,"lat":42.366},{"place":"Idaho\\Washington","number":1540,"lon":-116.7747,"lat":44.4512},{"place":"Kansas\\Finney","number":4500,"lon":-100.7392,"lat":38.0405},{"place":"Kansas\\Sherman","number":1560,"lon":-101.7182,"lat":39.3559},{"place":"Kansas\\Wallace","number":756,"lon":-101.7634,"lat":38.9156},{"place":"Maine\\Somerset","number":15,"lon":-69.9603,"lat":45.5198},{"place":"Massachusetts\\Berkshire","number":3,"lon":-73.2049,"lat":42.3678},{"place":"Michigan\\Alcona","number":980,"lon":-83.595,"lat":44.6887},{"place":"Michigan\\Alpena","number":977,"lon":-83.6291,"lat":45.039},{"place":"Michigan\\Arenac","number":4336,"lon":-83.892,"lat":44.0705},{"place":"Michigan\\Barry","number":70,"lon":-85.312,"lat":42.5933},{"place":"Michigan\\Bay","number":18226,"lon":-83.9875,"lat":43.7056},{"place":"Michigan\\Clinton","number":883,"lon":-84.5943,"lat":42.949},{"place":"Michigan\\Delta","number":1228,"lon":-86.9351,"lat":45.9242},{"place":"Michigan\\Genesee","number":552,"lon":-83.7035,"lat":43.028},{"place":"Michigan\\Gladwin","number":1595,"lon":-84.3786,"lat":43.9929},{"place":"Michigan\\Gratiot","number":6758,"lon":-84.6044,"lat":43.2969},{"place":"Michigan\\Huron","number":69019,"lon":-83.013,"lat":43.8392},{"place":"Michigan\\Ingham","number":28,"lon":-84.3682,"lat":42.604},{"place":"Michigan\\Isabella","number":1752,"lon":-84.8436,"lat":43.6408},{"place":"Michigan\\Kent","number":1351,"lon":-85.5457,"lat":43.0326},{"place":"Michigan\\Lapeer","number":224,"lon":-83.2213,"lat":43.0991},{"place":"Michigan\\Mecosta","number":1370,"lon":-85.3255,"lat":43.6408},{"place":"Michigan\\Midland","number":3009,"lon":-84.3839,"lat":43.6479},{"place":"Michigan\\Montcalm","number":7535,"lon":-85.154,"lat":43.311},{"place":"Michigan\\Montmorency","number":190,"lon":-84.121,"lat":45.0291},{"place":"Michigan\\Otsego","number":246,"lon":-84.5935,"lat":45.0182},{"place":"Michigan\\Ottawa","number":359,"lon":-85.9868,"lat":42.9615},{"place":"Michigan\\Presque Isle","number":773,"lon":-83.9148,"lat":45.3455},{"place":"Michigan\\Saginaw","number":7603,"lon":-84.05,"lat":43.3376},{"place":"Michigan\\St. Clair","number":353,"lon":-82.6986,"lat":42.9578},{"place":"Michigan\\St. Joseph","number":204,"lon":-85.5266,"lat":41.927},{"place":"Michigan\\Sanilac","number":22525,"lon":-82.821,"lat":43.4278},{"place":"Michigan\\Shiawassee","number":434,"lon":-84.1382,"lat":42.9575},{"place":"Michigan\\Tuscola","number":33341,"lon":-83.4152,"lat":43.4712},{"place":"Minnesota\\Becker","number":3147,"lon":-95.6586,"lat":46.9351},{"place":"Minnesota\\Big Stone","number":402,"lon":-96.3908,"lat":45.4269},{"place":"Minnesota\\Brown","number":600,"lon":-94.7258,"lat":44.2543},{"place":"Minnesota\\Chippewa","number":5674,"lon":-95.5612,"lat":45.0269},{"place":"Minnesota\\Clay","number":2214,"lon":-96.4735,"lat":46.8935},{"place":"Minnesota\\Grant","number":4432,"lon":-96.005,"lat":45.9398},{"place":"Minnesota\\Hubbard","number":9765,"lon":-94.9075,"lat":47.1055},{"place":"Minnesota\\Kandiyohi","number":4007,"lon":-95.0005,"lat":45.1581},{"place":"Minnesota\\Kittson","number":2608,"lon":-96.7649,"lat":48.7758},{"place":"Minnesota\\Lac qui Parle","number":612,"lon":-96.1639,"lat":45.0021},{"place":"Minnesota\\McLeod","number":993,"lon":-94.2731,"lat":44.8293},{"place":"Minnesota\\Mahnomen","number":3027,"lon":-95.7999,"lat":47.3263},{"place":"Minnesota\\Marshall","number":14728,"lon":-96.367,"lat":48.3553},{"place":"Minnesota\\Martin","number":193,"lon":-94.5638,"lat":43.6823},{"place":"Minnesota\\Morrison","number":3846,"lon":-94.2689,"lat":46.0226},{"place":"Minnesota\\Mower","number":939,"lon":-92.7599,"lat":43.6805},{"place":"Minnesota\\Norman","number":3687,"lon":-96.44,"lat":47.327},{"place":"Minnesota\\Otter Tail","number":9140,"lon":-95.6957,"lat":46.4104},{"place":"Minnesota\\Polk","number":46705,"lon":-96.3927,"lat":47.776},{"place":"Minnesota\\Pope","number":2856,"lon":-95.4425,"lat":45.5932},{"place":"Minnesota\\Red Lake","number":3532,"lon":-96.0766,"lat":47.8732},{"place":"Minnesota\\Redwood","number":187,"lon":-95.2509,"lat":44.4195},{"place":"Minnesota\\Renville","number":6256,"lon":-94.9422,"lat":44.7369},{"place":"Minnesota\\Roseau","number":727,"lon":-95.7866,"lat":48.7733},{"place":"Minnesota\\Sherburne","number":1120,"lon":-93.7811,"lat":45.4576},{"place":"Minnesota\\Sibley","number":275,"lon":-94.2261,"lat":44.5911},{"place":"Minnesota\\Stearns","number":2922,"lon":-94.6138,"lat":45.5611},{"place":"Minnesota\\Stevens","number":9083,"lon":-95.9953,"lat":45.5924},{"place":"Minnesota\\Swift","number":4954,"lon":-95.6759,"lat":45.2869},{"place":"Minnesota\\Todd","number":888,"lon":-94.8946,"lat":46.0781},{"place":"Minnesota\\Traverse","number":333,"lon":-96.4652,"lat":45.7768},{"place":"Minnesota\\Wadena","number":2090,"lon":-94.9595,"lat":46.589},{"place":"Minnesota\\Wilkin","number":542,"lon":-96.4568,"lat":46.3647},{"place":"Minnesota\\Winona","number":122,"lon":-91.7792,"lat":43.997},{"place":"Minnesota\\Yellow Medicine","number":260,"lon":-95.8575,"lat":44.7256},{"place":"Montana\\Blaine","number":480,"lon":-108.9576,"lat":48.43},{"place":"Montana\\Carbon","number":1965,"lon":-109.0336,"lat":45.2246},{"place":"Montana\\Chouteau","number":1067,"lon":-110.4276,"lat":47.8763},{"place":"Montana\\Custer","number":213,"lon":-105.549,"lat":46.2576},{"place":"Montana\\Daniels","number":2438,"lon":-105.5389,"lat":48.7857},{"place":"Montana\\Dawson","number":2190,"lon":-104.8876,"lat":47.2666},{"place":"Montana\\McCone","number":7012,"lon":-105.7844,"lat":47.6544},{"place":"Montana\\Prairie","number":1128,"lon":-105.3588,"lat":46.8644},{"place":"Montana\\Roosevelt","number":2215,"lon":-105.0024,"lat":48.2965},{"place":"Montana\\Sheridan","number":4792,"lon":-104.5023,"lat":48.7233},{"place":"Montana\\Stillwater","number":493,"lon":-109.3977,"lat":45.6696},{"place":"Montana\\Valley","number":2701,"lon":-106.6625,"lat":48.3715},{"place":"Montana\\Wibaux","number":975,"lon":-104.2429,"lat":46.9648},{"place":"Montana\\Yellowstone","number":523,"lon":-108.2676,"lat":45.9388},{"place":"Nebraska\\Banner","number":3712,"lon":-103.7052,"lat":41.5495},{"place":"Nebraska\\Box Butte","number":26472,"lon":-103.0763,"lat":42.2199},{"place":"Nebraska\\Chase","number":5691,"lon":-101.7047,"lat":40.5217},{"place":"Nebraska\\Cherry","number":3019,"lon":-101.1221,"lat":42.5425},{"place":"Nebraska\\Cheyenne","number":5936,"lon":-102.9866,"lat":41.2178},{"place":"Nebraska\\Custer","number":345,"lon":-99.7341,"lat":41.3943},{"place":"Nebraska\\Dawes","number":864,"lon":-103.1318,"lat":42.7137},{"place":"Nebraska\\Dundy","number":2656,"lon":-101.6896,"lat":40.1787},{"place":"Nebraska\\Garden","number":1589,"lon":-102.3325,"lat":41.6196},{"place":"Nebraska\\Hayes","number":2783,"lon":-101.0597,"lat":40.5256},{"place":"Nebraska\\Holt","number":2824,"lon":-98.7905,"lat":42.4524},{"place":"Nebraska\\Keith","number":2790,"lon":-101.6669,"lat":41.1981},{"place":"Nebraska\\Kimball","number":1514,"lon":-103.7138,"lat":41.2004},{"place":"Nebraska\\Morrill","number":15022,"lon":-103.0014,"lat":41.7137},{"place":"Nebraska\\Perkins","number":1012,"lon":-101.6603,"lat":40.8491},{"place":"Nebraska\\Scotts Bluff","number":39854,"lon":-103.7039,"lat":41.8533},{"place":"Nebraska\\Sheridan","number":10234,"lon":-102.4021,"lat":42.5049},{"place":"Nebraska\\Sherman","number":120,"lon":-98.9813,"lat":41.2186},{"place":"Nebraska\\Sioux","number":3246,"lon":-103.7612,"lat":42.4856},{"place":"New Mexico\\Santa Fe","number":11,"lon":-105.9773,"lat":35.4986},{"place":"New York\\Cayuga","number":64,"lon":-76.5546,"lat":42.9194},{"place":"New York\\Genesee","number":725,"lon":-78.1981,"lat":42.9996},{"place":"New York\\Livingston","number":2479,"lon":-77.7825,"lat":42.7225},{"place":"New York\\Monroe","number":1870,"lon":-77.7019,"lat":43.1431},{"place":"New York\\Ontario","number":938,"lon":-77.2999,"lat":42.8539},{"place":"New York\\Steuben","number":1373,"lon":-77.3891,"lat":42.2693},{"place":"New York\\Yates","number":260,"lon":-77.1196,"lat":42.6319},{"place":"North Dakota\\Barnes","number":7456,"lon":-98.066,"lat":46.9327},{"place":"North Dakota\\Benson","number":44660,"lon":-99.3727,"lat":48.0728},{"place":"North Dakota\\Bowman","number":590,"lon":-103.5133,"lat":46.1072},{"place":"North Dakota\\Burleigh","number":5063,"lon":-100.4607,"lat":46.979},{"place":"North Dakota\\Cass","number":15291,"lon":-97.2383,"lat":46.9298},{"place":"North Dakota\\Cavalier","number":24001,"lon":-98.4501,"lat":48.7733},{"place":"North Dakota\\Dickey","number":3227,"lon":-98.5006,"lat":46.1099},{"place":"North Dakota\\Eddy","number":7728,"lon":-98.8999,"lat":47.72},{"place":"North Dakota\\Emmons","number":1766,"lon":-100.2259,"lat":46.2823},{"place":"North Dakota\\Foster","number":4352,"lon":-98.8811,"lat":47.4597},{"place":"North Dakota\\Golden Valley","number":252,"lon":-103.8453,"lat":46.9427},{"place":"North Dakota\\Grand Forks","number":93046,"lon":-97.4469,"lat":47.9202},{"place":"North Dakota\\Griggs","number":13777,"lon":-98.2257,"lat":47.4562},{"place":"North Dakota\\LaMoure","number":7760,"lon":-98.5331,"lat":46.4563},{"place":"North Dakota\\McHenry","number":1769,"lon":-100.6334,"lat":48.2356},{"place":"North Dakota\\McIntosh","number":183,"lon":-99.4325,"lat":46.1115},{"place":"North Dakota\\McLean","number":24322,"lon":-101.3121,"lat":47.6079},{"place":"North Dakota\\Mountrail","number":1511,"lon":-102.35,"lat":48.2028},{"place":"North Dakota\\Nelson","number":20099,"lon":-98.1861,"lat":47.9237},{"place":"North Dakota\\Oliver","number":4405,"lon":-101.3279,"lat":47.115},{"place":"North Dakota\\Pembina","number":84009,"lon":-97.5412,"lat":48.7701},{"place":"North Dakota\\Pierce","number":10005,"lon":-99.9696,"lat":48.2516},{"place":"North Dakota\\Ramsey","number":44792,"lon":-98.7219,"lat":48.2679},{"place":"North Dakota\\Ransom","number":8675,"lon":-97.652,"lat":46.454},{"place":"North Dakota\\Richland","number":6221,"lon":-96.9399,"lat":46.2675},{"place":"North Dakota\\Sargent","number":2526,"lon":-97.6236,"lat":46.1096},{"place":"North Dakota\\Steele","number":39335,"lon":-97.7116,"lat":47.4515},{"place":"North Dakota\\Stutsman","number":17100,"lon":-98.9582,"lat":46.9804},{"place":"North Dakota\\Towner","number":10728,"lon":-99.2457,"lat":48.6871},{"place":"North Dakota\\Traill","number":30886,"lon":-97.1499,"lat":47.4529},{"place":"North Dakota\\Walsh","number":90117,"lon":-97.7186,"lat":48.3714},{"place":"North Dakota\\Ward","number":1956,"lon":-101.5381,"lat":48.2212},{"place":"North Dakota\\Wells","number":45409,"lon":-99.6635,"lat":47.5901},{"place":"North Dakota\\Williams","number":4990,"lon":-103.4787,"lat":48.3426},{"place":"Oregon\\Deschutes","number":295,"lon":-121.2259,"lat":43.9095},{"place":"Oregon\\Douglas","number":3,"lon":-123.1605,"lat":43.2689},{"place":"Oregon\\Jackson","number":6,"lon":-122.7319,"lat":42.4312},{"place":"Oregon\\Lane","number":177,"lon":-122.8368,"lat":43.9336},{"place":"Oregon\\Malheur","number":5658,"lon":-117.624,"lat":43.2002},{"place":"Oregon\\Umatilla","number":3619,"lon":-118.7349,"lat":45.5916},{"place":"Oregon\\Yamhill","number":3,"lon":-123.2923,"lat":45.2211},{"place":"South Dakota\\Brown","number":1777,"lon":-98.3511,"lat":45.5883},{"place":"South Dakota\\Corson","number":1116,"lon":-101.1936,"lat":45.7022},{"place":"Texas\\Hidalgo","number":944,"lon":-98.1863,"lat":26.4031},{"place":"Texas\\Hunt","number":15,"lon":-96.0832,"lat":33.1342},{"place":"Texas\\Jasper","number":3,"lon":-94.0256,"lat":30.7542},{"place":"Texas\\Parmer","number":318,"lon":-102.7853,"lat":34.5195},{"place":"Vermont\\Orange","number":5,"lon":-72.379,"lat":44.009},{"place":"Vermont\\Washington","number":6,"lon":-72.6122,"lat":44.2767},{"place":"Vermont\\Windsor","number":3,"lon":-72.5849,"lat":43.5849},{"place":"Washington\\Adams","number":7882,"lon":-118.5545,"lat":46.9814},{"place":"Washington\\Asotin","number":1165,"lon":-117.1981,"lat":46.1986},{"place":"Washington\\Columbia","number":2922,"lon":-117.9178,"lat":46.3023},{"place":"Washington\\Franklin","number":3233,"lon":-118.9044,"lat":46.5356},{"place":"Washington\\Grant","number":20467,"lon":-119.4547,"lat":47.2001},{"place":"Washington\\Lincoln","number":1558,"lon":-118.4155,"lat":47.5728},{"place":"Washington\\Pierce","number":3,"lon":-122.0454,"lat":46.9869},{"place":"Washington\\Snohomish","number":3,"lon":-121.67,"lat":48.042},{"place":"Washington\\Spokane","number":715,"lon":-117.3967,"lat":47.6249},{"place":"Washington\\Walla Walla","number":10270,"lon":-118.4879,"lat":46.2303},{"place":"Washington\\Whatcom","number":3,"lon":-121.6892,"lat":48.8205},{"place":"Washington\\Whitman","number":65037,"lon":-117.5139,"lat":46.8988},{"place":"Washington\\Yakima","number":218,"lon":-120.7405,"lat":46.4518},{"place":"Wisconsin\\Dunn","number":5173,"lon":-91.902,"lat":44.9525},{"place":"Wisconsin\\Vernon","number":5,"lon":-90.835,"lat":43.5952},{"place":"Wyoming\\Big Horn","number":10214,"lon":-107.9901,"lat":44.5272},{"place":"Wyoming\\Fremont","number":5952,"lon":-108.6247,"lat":43.0373},{"place":"Wyoming\\Goshen","number":7251,"lon":-104.3554,"lat":42.0886},{"place":"Wyoming\\Laramie","number":6244,"lon":-104.6931,"lat":41.3112},{"place":"Wyoming\\Park","number":8570,"lon":-109.7584,"lat":44.4927},{"place":"Wyoming\\Platte","number":1798,"lon":-104.9636,"lat":42.1325},{"place":"Wyoming\\Washakie","number":1003,"lon":-107.6793,"lat":43.9091}]
