[{"place":"Alabama\\Autauga","number":13334,"lon":-86.6456,"lat":32.5401},{"place":"Alabama\\Baldwin","number":9847,"lon":-87.7263,"lat":30.7383},{"place":"Alabama\\Barbour","number":10125,"lon":-85.3973,"lat":31.874},{"place":"Alabama\\Bibb","number":5962,"lon":-87.1253,"lat":32.999},{"place":"Alabama\\Blount","number":21170,"lon":-86.5627,"lat":33.9904},{"place":"Alabama\\Bullock","number":6578,"lon":-85.7168,"lat":32.1063},{"place":"Alabama\\Butler","number":9449,"lon":-86.6843,"lat":31.7571},{"place":"Alabama\\Calhoun","number":11936,"lon":-85.8296,"lat":33.7762},{"place":"Alabama\\Chambers","number":8209,"lon":-85.3949,"lat":32.9163},{"place":"Alabama\\Cherokee","number":8465,"lon":-85.6042,"lat":34.1915},{"place":"Alabama\\Chilton","number":10978,"lon":-86.7156,"lat":32.8516},{"place":"Alabama\\Choctaw","number":3584,"lon":-88.2595,"lat":32.0205},{"place":"Alabama\\Clarke","number":4958,"lon":-87.8248,"lat":31.6733},{"place":"Alabama\\Clay","number":8363,"lon":-85.8518,"lat":33.2734},{"place":"Alabama\\Cleburne","number":5070,"lon":-85.5261,"lat":33.6762},{"place":"Alabama\\Coffee","number":12418,"lon":-85.9944,"lat":31.3985},{"place":"Alabama\\Colbert","number":11676,"lon":-87.811,"lat":34.7028},{"place":"Alabama\\Conecuh","number":6086,"lon":-86.9907,"lat":31.4358},{"place":"Alabama\\Coosa","number":3135,"lon":-86.2454,"lat":32.9402},{"place":"Alabama\\Covington","number":14929,"lon":-86.4566,"lat":31.2597},{"place":"Alabama\\Crenshaw","number":12413,"lon":-86.3196,"lat":31.7359},{"place":"Alabama\\Cullman","number":34588,"lon":-86.8654,"lat":34.1382},{"place":"Alabama\\Dale","number":7396,"lon":-85.6191,"lat":31.4309},{"place":"Alabama\\Dallas","number":14275,"lon":-87.0977,"lat":32.3267},{"place":"Alabama\\DeKalb","number":35497,"lon":-85.8123,"lat":34.4544},{"place":"Alabama\\Elmore","number":10148,"lon":-86.1542,"lat":32.5989},{"place":"Alabama\\Escambia","number":4513,"lon":-87.1575,"lat":31.1334},{"place":"Alabama\\Etowah","number":10928,"lon":-86.0334,"lat":34.0527},{"place":"Alabama\\Fayette","number":7571,"lon":-87.7364,"lat":33.7219},{"place":"Alabama\\Franklin","number":17462,"lon":-87.8456,"lat":34.4434},{"place":"Alabama\\Geneva","number":11882,"lon":-85.8444,"lat":31.0999},{"place":"Alabama\\Greene","number":9613,"lon":-87.9481,"lat":32.8657},{"place":"Alabama\\Hale","number":13928,"lon":-87.6222,"lat":32.7649},{"place":"Alabama\\Henry","number":8518,"lon":-85.2541,"lat":31.516},{"place":"Alabama\\Houston","number":10932,"lon":-85.3154,"lat":31.1525},{"place":"Alabama\\Jackson","number":26312,"lon":-85.9978,"lat":34.7768},{"place":"Alabama\\Jefferson","number":5997,"lon":-86.8903,"lat":33.5631},{"place":"Alabama\\Lamar","number":7794,"lon":-88.098,"lat":33.7817},{"place":"Alabama\\Lauderdale","number":23436,"lon":-87.6542,"lat":34.9041},{"place":"Alabama\\Lawrence","number":21494,"lon":-87.3056,"lat":34.5248},{"place":"Alabama\\Lee","number":3493,"lon":-85.3553,"lat":32.6099},{"place":"Alabama\\Limestone","number":22586,"lon":-86.9737,"lat":34.8122},{"place":"Alabama\\Lowndes","number":19011,"lon":-86.65,"lat":32.1578},{"place":"Alabama\\Macon","number":6236,"lon":-85.6951,"lat":32.3939},{"place":"Alabama\\Madison","number":19504,"lon":-86.5431,"lat":34.7652},{"place":"Alabama\\Marengo","number":13439,"lon":-87.7783,"lat":32.2512},{"place":"Alabama\\Marion","number":10130,"lon":-87.8832,"lat":34.1379},{"place":"Alabama\\Marshall","number":27123,"lon":-86.3061,"lat":34.3703},{"place":"Alabama\\Mobile","number":7674,"lon":-88.207,"lat":30.8136},{"place":"Alabama\\Monroe","number":8886,"lon":-87.364,"lat":31.5722},{"place":"Alabama\\Montgomery","number":21940,"lon":-86.2071,"lat":32.2254},{"place":"Alabama\\Morgan","number":25318,"lon":-86.8479,"lat":34.458},{"place":"Alabama\\Perry","number":10577,"lon":-87.2841,"lat":32.6376},{"place":"Alabama\\Pickens","number":9086,"lon":-88.0869,"lat":33.2804},{"place":"Alabama\\Pike","number":13523,"lon":-85.9418,"lat":31.8055},{"place":"Alabama\\Randolph","number":9138,"lon":-85.4566,"lat":33.2942},{"place":"Alabama\\Russell","number":6111,"lon":-85.1941,"lat":32.2952},{"place":"Alabama\\St. Clair","number":9401,"lon":-86.3139,"lat":33.7245},{"place":"Alabama\\Shelby","number":8926,"lon":-86.6651,"lat":33.2676},{"place":"Alabama\\Sumter","number":11873,"lon":-88.1921,"lat":32.5896},{"place":"Alabama\\Talladega","number":13770,"lon":-86.1631,"lat":33.3865},{"place":"Alabama\\Tallapoosa","number":3784,"lon":-85.801,"lat":32.8684},{"place":"Alabama\\Tuscaloosa","number":10305,"lon":-87.517,"lat":33.2944},{"place":"Alabama\\Walker","number":9919,"lon":-87.2892,"lat":33.8133},{"place":"Alabama\\Washington","number":5882,"lon":-88.2056,"lat":31.4132},{"place":"Alabama\\Wilcox","number":8975,"lon":-87.2977,"lat":31.9931},{"place":"Alabama\\Winston","number":9479,"lon":-87.37,"lat":34.1531},{"place":"Arizona\\Apache","number":3691,"lon":-109.4911,"lat":35.4051},{"place":"Arizona\\Cochise","number":20598,"lon":-109.7629,"lat":31.8863},{"place":"Arizona\\Coconino","number":357,"lon":-111.7683,"lat":35.8339},{"place":"Arizona\\Gila","number":369,"lon":-110.8133,"lat":33.7996},{"place":"Arizona\\Graham","number":4470,"lon":-109.899,"lat":32.9344},{"place":"Arizona\\Greenlee","number":2823,"lon":-109.2466,"lat":33.2089},{"place":"Arizona\\Maricopa","number":88682,"lon":-112.4891,"lat":33.3526},{"place":"Arizona\\Mohave","number":12064,"lon":-113.753,"lat":35.7065},{"place":"Arizona\\Navajo","number":2231,"lon":-110.3228,"lat":35.3928},{"place":"Arizona\\Pima","number":5455,"lon":-111.8002,"lat":32.105},{"place":"Arizona\\Pinal","number":67831,"lon":-111.3519,"lat":32.9067},{"place":"Arizona\\Santa Cruz","number":520,"lon":-110.8631,"lat":31.536},{"place":"Arizona\\Yavapai","number":3175,"lon":-112.55,"lat":34.598},{"place":"Arizona\\Yuma","number":45328,"lon":-113.9079,"lat":32.7798},{"place":"Arkansas\\Arkansas","number":1677,"lon":-91.3733,"lat":34.2967},{"place":"Arkansas\\Ashley","number":4571,"lon":-91.7719,"lat":33.1865},{"place":"Arkansas\\Baxter","number":10694,"lon":-92.3435,"lat":36.2916},{"place":"Arkansas\\Benton","number":70535,"lon":-94.264,"lat":36.3417},{"place":"Arkansas\\Boone","number":28855,"lon":-93.0886,"lat":36.3092},{"place":"Arkansas\\Bradley","number":3787,"lon":-92.166,"lat":33.4646},{"place":"Arkansas\\Calhoun","number":2438,"lon":-92.5104,"lat":33.554},{"place":"Arkansas\\Carroll","number":38314,"lon":-93.5476,"lat":36.3378},{"place":"Arkansas\\Chicot","number":2172,"lon":-91.2963,"lat":33.2609},{"place":"Arkansas\\Clark","number":13767,"lon":-93.1744,"lat":34.057},{"place":"Arkansas\\Clay","number":6023,"lon":-90.425,"lat":36.3718},{"place":"Arkansas\\Cleburne","number":28558,"lon":-92.0413,"lat":35.5298},{"place":"Arkansas\\Cleveland","number":5699,"lon":-92.1813,"lat":33.8996},{"place":"Arkansas\\Columbia","number":10612,"lon":-93.2292,"lat":33.2155},{"place":"Arkansas\\Conway","number":39389,"lon":-92.6984,"lat":35.2537},{"place":"Arkansas\\Craighead","number":5200,"lon":-90.643,"lat":35.8292},{"place":"Arkansas\\Crawford","number":22340,"lon":-94.2518,"lat":35.5844},{"place":"Arkansas\\Crittenden","number":1276,"lon":-90.3015,"lat":35.2014},{"place":"Arkansas\\Cross","number":2606,"lon":-90.7755,"lat":35.2892},{"place":"Arkansas\\Dallas","number":3003,"lon":-92.649,"lat":33.9707},{"place":"Arkansas\\Desha","number":120,"lon":-91.2715,"lat":33.8323},{"place":"Arkansas\\Drew","number":7335,"lon":-91.7233,"lat":33.5864},{"place":"Arkansas\\Faulkner","number":33494,"lon":-92.3309,"lat":35.1422},{"place":"Arkansas\\Franklin","number":38371,"lon":-93.8983,"lat":35.5055},{"place":"Arkansas\\Fulton","number":18459,"lon":-91.8249,"lat":36.3796},{"place":"Arkansas\\Garland","number":6374,"lon":-93.1444,"lat":34.5764},{"place":"Arkansas\\Grant","number":9496,"lon":-92.4254,"lat":34.2975},{"place":"Arkansas\\Greene","number":9494,"lon":-90.5598,"lat":36.1162},{"place":"Arkansas\\Hempstead","number":35194,"lon":-93.6685,"lat":33.7358},{"place":"Arkansas\\Hot Spring","number":15854,"lon":-92.9384,"lat":34.3224},{"place":"Arkansas\\Howard","number":20714,"lon":-93.9979,"lat":34.0955},{"place":"Arkansas\\Independence","number":30237,"lon":-91.5786,"lat":35.7354},{"place":"Arkansas\\Izard","number":17103,"lon":-91.9243,"lat":36.0862},{"place":"Arkansas\\Jackson","number":4091,"lon":-91.2232,"lat":35.5912},{"place":"Arkansas\\Jefferson","number":3985,"lon":-91.9318,"lat":34.2759},{"place":"Arkansas\\Johnson","number":28919,"lon":-93.4714,"lat":35.5632},{"place":"Arkansas\\Lafayette","number":12894,"lon":-93.6067,"lat":33.2393},{"place":"Arkansas\\Lawrence","number":14296,"lon":-91.1179,"lat":36.0375},{"place":"Arkansas\\Lee","number":864,"lon":-90.774,"lat":34.7829},{"place":"Arkansas\\Lincoln","number":7882,"lon":-91.7261,"lat":33.9634},{"place":"Arkansas\\Little River","number":25457,"lon":-94.2432,"lat":33.7094},{"place":"Arkansas\\Logan","number":53082,"lon":-93.7243,"lat":35.2106},{"place":"Arkansas\\Lonoke","number":20914,"lon":-91.8911,"lat":34.7568},{"place":"Arkansas\\Madison","number":42848,"lon":-93.7309,"lat":36.0039},{"place":"Arkansas\\Marion","number":12629,"lon":-92.6819,"lat":36.2637},{"place":"Arkansas\\Miller","number":17164,"lon":-93.8957,"lat":33.3189},{"place":"Arkansas\\Mississippi","number":1262,"lon":-90.0554,"lat":35.7557},{"place":"Arkansas\\Monroe","number":850,"lon":-91.2086,"lat":34.6758},{"place":"Arkansas\\Montgomery","number":18125,"lon":-93.6583,"lat":34.5477},{"place":"Arkansas\\Nevada","number":13473,"lon":-93.3072,"lat":33.6637},{"place":"Arkansas\\Newton","number":12181,"lon":-93.2204,"lat":35.9112},{"place":"Arkansas\\Ouachita","number":6202,"lon":-92.8871,"lat":33.5976},{"place":"Arkansas\\Perry","number":15733,"lon":-92.9415,"lat":34.9423},{"place":"Arkansas\\Phillips","number":1258,"lon":-90.8502,"lat":34.4359},{"place":"Arkansas\\Pike","number":13099,"lon":-93.6588,"lat":34.1713},{"place":"Arkansas\\Poinsett","number":1625,"lon":-90.6674,"lat":35.5678},{"place":"Arkansas\\Polk","number":24222,"lon":-94.2379,"lat":34.497},{"place":"Arkansas\\Pope","number":32194,"lon":-93.0334,"lat":35.4408},{"place":"Arkansas\\Prairie","number":4751,"lon":-91.5539,"lat":34.8317},{"place":"Arkansas\\Pulaski","number":8063,"lon":-92.3127,"lat":34.7718},{"place":"Arkansas\\Randolph","number":19030,"lon":-91.0407,"lat":36.3458},{"place":"Arkansas\\St. Francis","number":1255,"lon":-90.7606,"lat":35.0155},{"place":"Arkansas\\Saline","number":10153,"lon":-92.6723,"lat":34.6501},{"place":"Arkansas\\Scott","number":25933,"lon":-94.0746,"lat":34.8665},{"place":"Arkansas\\Searcy","number":18437,"lon":-92.6988,"lat":35.9044},{"place":"Arkansas\\Sebastian","number":28604,"lon":-94.2804,"lat":35.2038},{"place":"Arkansas\\Sevier","number":24626,"lon":-94.2527,"lat":34.0009},{"place":"Arkansas\\Sharp","number":16189,"lon":-91.4939,"lat":36.1531},{"place":"Arkansas\\Stone","number":17334,"lon":-92.161,"lat":35.8532},{"place":"Arkansas\\Union","number":6961,"lon":-92.6011,"lat":33.1708},{"place":"Arkansas\\Van Buren","number":20685,"lon":-92.5263,"lat":35.5737},{"place":"Arkansas\\Washington","number":70450,"lon":-94.2217,"lat":35.9761},{"place":"Arkansas\\White","number":45744,"lon":-91.7456,"lat":35.2527},{"place":"Arkansas\\Woodruff","number":1259,"lon":-91.2464,"lat":35.1819},{"place":"Arkansas\\Yell","number":38204,"lon":-93.4137,"lat":35.0046},{"place":"California\\Alameda","number":3296,"lon":-121.8495,"lat":37.6465},{"place":"California\\Alpine","number":240,"lon":-119.8177,"lat":38.5954},{"place":"California\\Amador","number":4248,"lon":-120.6409,"lat":38.4526},{"place":"California\\Butte","number":5931,"lon":-121.6008,"lat":39.6672},{"place":"California\\Calaveras","number":787,"lon":-120.553,"lat":38.2092},{"place":"California\\Colusa","number":11724,"lon":-122.2415,"lat":39.1827},{"place":"California\\Contra Costa","number":8879,"lon":-121.9167,"lat":37.9186},{"place":"California\\Del Norte","number":5915,"lon":-123.9036,"lat":41.7603},{"place":"California\\El Dorado","number":327,"lon":-120.5285,"lat":38.7808},{"place":"California\\Fresno","number":90491,"lon":-119.641,"lat":36.7537},{"place":"California\\Glenn","number":27086,"lon":-122.3913,"lat":39.6051},{"place":"California\\Humboldt","number":10455,"lon":-123.8754,"lat":40.7075},{"place":"California\\Imperial","number":246400,"lon":-115.3751,"lat":33.0447},{"place":"California\\Inyo","number":5667,"lon":-117.4185,"lat":36.5164},{"place":"California\\Kern","number":76305,"lon":-118.7287,"lat":35.3416},{"place":"California\\Kings","number":81345,"lon":-119.8055,"lat":36.0664},{"place":"California\\Lake","number":2810,"lon":-122.7626,"lat":39.1091},{"place":"California\\Lassen","number":35117,"lon":-120.6007,"lat":40.6875},{"place":"California\\Los Angeles","number":12193,"lon":-118.2127,"lat":34.37},{"place":"California\\Madera","number":35554,"lon":-119.7624,"lat":37.2136},{"place":"California\\Marin","number":6758,"lon":-122.6953,"lat":38.071},{"place":"California\\Mariposa","number":296,"lon":-119.8984,"lat":37.5806},{"place":"California\\Mendocino","number":9249,"lon":-123.3849,"lat":39.4564},{"place":"California\\Merced","number":129575,"lon":-120.7211,"lat":37.1852},{"place":"California\\Modoc","number":96740,"lon":-120.7383,"lat":41.6085},{"place":"California\\Mono","number":10516,"lon":-118.8874,"lat":37.9388},{"place":"California\\Monterey","number":11060,"lon":-121.2124,"lat":36.2088},{"place":"California\\Napa","number":945,"lon":-122.3382,"lat":38.5091},{"place":"California\\Nevada","number":476,"lon":-120.7704,"lat":39.3041},{"place":"California\\Placer","number":6070,"lon":-120.7166,"lat":39.0666},{"place":"California\\Plumas","number":11684,"lon":-120.8497,"lat":40.0153},{"place":"California\\Riverside","number":54969,"lon":-116.0093,"lat":33.7456},{"place":"California\\Sacramento","number":27107,"lon":-121.3375,"lat":38.4514},{"place":"California\\San Benito","number":6207,"lon":-121.0695,"lat":36.6021},{"place":"California\\San Bernardino","number":10961,"lon":-116.1729,"lat":34.8452},{"place":"California\\San Diego","number":5006,"lon":-116.7202,"lat":33.0401},{"place":"California\\San Joaquin","number":83664,"lon":-121.2678,"lat":37.9407},{"place":"California\\San Luis Obispo","number":24178,"lon":-120.3724,"lat":35.3793},{"place":"California\\San Mateo","number":1380,"lon":-122.2982,"lat":37.4368},{"place":"California\\Santa Barbara","number":5780,"lon":-120.011,"lat":34.7335},{"place":"California\\Santa Clara","number":6084,"lon":-121.6923,"lat":37.23},{"place":"California\\Shasta","number":13696,"lon":-122.0548,"lat":40.78},{"place":"California\\Sierra","number":2676,"lon":-120.5112,"lat":39.5825},{"place":"California\\Siskiyou","number":90042,"lon":-122.5631,"lat":41.6036},{"place":"California\\Solano","number":53277,"lon":-121.9219,"lat":38.2789},{"place":"California\\Sonoma","number":21100,"lon":-122.8763,"lat":38.5331},{"place":"California\\Stanislaus","number":69986,"lon":-120.9973,"lat":37.5578},{"place":"California\\Sutter","number":9831,"lon":-121.6902,"lat":39.0345},{"place":"California\\Tehama","number":17640,"lon":-122.2458,"lat":40.1365},{"place":"California\\Trinity","number":464,"lon":-123.1281,"lat":40.6737},{"place":"California\\Tulare","number":163358,"lon":-118.792,"lat":36.2181},{"place":"California\\Tuolumne","number":410,"lon":-119.9556,"lat":38.0288},{"place":"California\\Ventura","number":2062,"lon":-119.0715,"lat":34.4901},{"place":"California\\Yolo","number":48452,"lon":-121.9048,"lat":38.6917},{"place":"California\\Yuba","number":3162,"lon":-121.3527,"lat":39.2651},{"place":"Colorado\\Adams","number":13361,"lon":-104.3365,"lat":39.8803},{"place":"Colorado\\Alamosa","number":20984,"lon":-105.7998,"lat":37.5569},{"place":"Colorado\\Arapahoe","number":4335,"lon":-104.3394,"lat":39.6527},{"place":"Colorado\\Archuleta","number":8907,"lon":-107.0327,"lat":37.1846},{"place":"Colorado\\Baca","number":14611,"lon":-102.564,"lat":37.3127},{"place":"Colorado\\Bent","number":27346,"lon":-103.0792,"lat":37.943},{"place":"Colorado\\Boulder","number":23397,"lon":-105.3542,"lat":40.0936},{"place":"Colorado\\Chaffee","number":10797,"lon":-106.2033,"lat":38.748},{"place":"Colorado\\Cheyenne","number":7398,"lon":-102.6116,"lat":38.8264},{"place":"Colorado\\Clear Creek","number":237,"lon":-105.6468,"lat":39.6871},{"place":"Colorado\\Conejos","number":76560,"lon":-106.1924,"lat":37.1887},{"place":"Colorado\\Costilla","number":21278,"lon":-105.4359,"lat":37.2763},{"place":"Colorado\\Crowley","number":5764,"lon":-103.7832,"lat":38.3229},{"place":"Colorado\\Custer","number":15155,"lon":-105.3701,"lat":38.1039},{"place":"Colorado\\Delta","number":33586,"lon":-107.8767,"lat":38.8465},{"place":"Colorado\\Dolores","number":6671,"lon":-108.5002,"lat":37.7555},{"place":"Colorado\\Douglas","number":7082,"lon":-104.925,"lat":39.3249},{"place":"Colorado\\Eagle","number":9565,"lon":-106.6999,"lat":39.6201},{"place":"Colorado\\Elbert","number":21790,"lon":-104.1336,"lat":39.2876},{"place":"Colorado\\El Paso","number":7521,"lon":-104.5175,"lat":38.825},{"place":"Colorado\\Fremont","number":6805,"lon":-105.4398,"lat":38.4674},{"place":"Colorado\\Garfield","number":24705,"lon":-107.9079,"lat":39.5966},{"place":"Colorado\\Gilpin","number":100,"lon":-105.5256,"lat":39.8609},{"place":"Colorado\\Grand","number":30377,"lon":-106.1217,"lat":40.0983},{"place":"Colorado\\Gunnison","number":33512,"lon":-107.0411,"lat":38.6619},{"place":"Colorado\\Hinsdale","number":1032,"lon":-107.3026,"lat":37.8284},{"place":"Colorado\\Huerfano","number":9025,"lon":-104.9609,"lat":37.6854},{"place":"Colorado\\Jackson","number":51885,"lon":-106.3525,"lat":40.6674},{"place":"Colorado\\Jefferson","number":3773,"lon":-105.2486,"lat":39.5905},{"place":"Colorado\\Kiowa","number":7948,"lon":-102.7448,"lat":38.4221},{"place":"Colorado\\Kit Carson","number":20149,"lon":-102.607,"lat":39.3107},{"place":"Colorado\\Lake","number":560,"lon":-106.352,"lat":39.1938},{"place":"Colorado\\La Plata","number":36245,"lon":-107.8383,"lat":37.2827},{"place":"Colorado\\Larimer","number":31298,"lon":-105.4688,"lat":40.6745},{"place":"Colorado\\Las Animas","number":13718,"lon":-104.0498,"lat":37.3032},{"place":"Colorado\\Lincoln","number":14345,"lon":-103.515,"lat":38.9902},{"place":"Colorado\\Logan","number":41180,"lon":-103.1089,"lat":40.73},{"place":"Colorado\\Mesa","number":43487,"lon":-108.4652,"lat":39.0183},{"place":"Colorado\\Mineral","number":540,"lon":-106.9296,"lat":37.6612},{"place":"Colorado\\Moffat","number":22453,"lon":-108.2035,"lat":40.6224},{"place":"Colorado\\Montezuma","number":40879,"lon":-108.6086,"lat":37.3444},{"place":"Colorado\\Montrose","number":32283,"lon":-108.2772,"lat":38.3952},{"place":"Colorado\\Morgan","number":32914,"lon":-103.8052,"lat":40.2724},{"place":"Colorado\\Otero","number":32757,"lon":-103.7199,"lat":37.8951},{"place":"Colorado\\Ouray","number":7124,"lon":-107.7715,"lat":38.1547},{"place":"Colorado\\Park","number":3569,"lon":-105.72,"lat":39.1195},{"place":"Colorado\\Phillips","number":3923,"lon":-102.3661,"lat":40.5969},{"place":"Colorado\\Pitkin","number":3782,"lon":-106.9171,"lat":39.2125},{"place":"Colorado\\Prowers","number":54906,"lon":-102.3978,"lat":37.9459},{"place":"Colorado\\Pueblo","number":8541,"lon":-104.507,"lat":38.1684},{"place":"Colorado\\Rio Blanco","number":23072,"lon":-108.2123,"lat":39.9805},{"place":"Colorado\\Rio Grande","number":45890,"lon":-106.3911,"lat":37.5727},{"place":"Colorado\\Routt","number":67189,"lon":-106.9947,"lat":40.4931},{"place":"Colorado\\Saguache","number":47096,"lon":-106.2814,"lat":38.0725},{"place":"Colorado\\San Miguel","number":5025,"lon":-108.4148,"lat":37.9998},{"place":"Colorado\\Sedgwick","number":4416,"lon":-102.359,"lat":40.8778},{"place":"Colorado\\Summit","number":3645,"lon":-106.122,"lat":39.6264},{"place":"Colorado\\Teller","number":339,"lon":-105.1583,"lat":38.8794},{"place":"Colorado\\Washington","number":20764,"lon":-103.1988,"lat":39.977},{"place":"Colorado\\Weld","number":109518,"lon":-104.3899,"lat":40.5623},{"place":"Colorado\\Yuma","number":18795,"lon":-102.4246,"lat":40.0067},{"place":"Connecticut\\Fairfield","number":1522,"lon":-73.3923,"lat":41.2813},{"place":"Connecticut\\Hartford","number":6207,"lon":-72.7322,"lat":41.8049},{"place":"Connecticut\\Litchfield","number":22486,"lon":-73.2515,"lat":41.7959},{"place":"Connecticut\\Middlesex","number":4211,"lon":-72.5326,"lat":41.4656},{"place":"Connecticut\\New Haven","number":6409,"lon":-72.9274,"lat":41.412},{"place":"Connecticut\\New London","number":10297,"lon":-72.098,"lat":41.4893},{"place":"Connecticut\\Tolland","number":7606,"lon":-72.3371,"lat":41.8592},{"place":"Connecticut\\Windham","number":10275,"lon":-71.9825,"lat":41.8342},{"place":"Delaware\\Kent","number":6371,"lon":-75.5739,"lat":39.0877},{"place":"Delaware\\New Castle","number":4215,"lon":-75.6552,"lat":39.5834},{"place":"Delaware\\Sussex","number":4708,"lon":-75.4067,"lat":38.6657},{"place":"Florida\\Alachua","number":20803,"lon":-82.3578,"lat":29.6692},{"place":"Florida\\Baker","number":1892,"lon":-82.2813,"lat":30.3241},{"place":"Florida\\Bay","number":777,"lon":-85.6243,"lat":30.2953},{"place":"Florida\\Bradford","number":6116,"lon":-82.1703,"lat":29.9425},{"place":"Florida\\Brevard","number":2396,"lon":-80.758,"lat":28.1776},{"place":"Florida\\Broward","number":907,"lon":-80.4987,"lat":26.1426},{"place":"Florida\\Calhoun","number":2654,"lon":-85.2136,"lat":30.4147},{"place":"Florida\\Charlotte","number":1020,"lon":-81.8902,"lat":26.9043},{"place":"Florida\\Citrus","number":3330,"lon":-82.4574,"lat":28.8503},{"place":"Florida\\Clay","number":2703,"lon":-81.8454,"lat":29.9716},{"place":"Florida\\Collier","number":468,"lon":-81.3567,"lat":26.114},{"place":"Florida\\Columbia","number":11423,"lon":-82.6212,"lat":30.2128},{"place":"Florida\\DeSoto","number":5201,"lon":-81.848,"lat":27.1826},{"place":"Florida\\Dixie","number":1572,"lon":-83.1563,"lat":29.6092},{"place":"Florida\\Duval","number":2383,"lon":-81.6658,"lat":30.3151},{"place":"Florida\\Escambia","number":3923,"lon":-87.3966,"lat":30.721},{"place":"Florida\\Flagler","number":546,"lon":-81.3154,"lat":29.46},{"place":"Florida\\Franklin","number":650,"lon":-84.8005,"lat":29.9123},{"place":"Florida\\Gadsden","number":2950,"lon":-84.6205,"lat":30.5801},{"place":"Florida\\Gilchrist","number":11553,"lon":-82.8031,"lat":29.7238},{"place":"Florida\\Glades","number":2724,"lon":-81.2135,"lat":26.9473},{"place":"Florida\\Gulf","number":200,"lon":-85.2472,"lat":29.9585},{"place":"Florida\\Hamilton","number":4602,"lon":-82.9354,"lat":30.4873},{"place":"Florida\\Hardee","number":7068,"lon":-81.8112,"lat":27.4902},{"place":"Florida\\Hendry","number":223,"lon":-81.1726,"lat":26.5384},{"place":"Florida\\Hernando","number":11010,"lon":-82.4325,"lat":28.5557},{"place":"Florida\\Highlands","number":9243,"lon":-81.3362,"lat":27.3448},{"place":"Florida\\Hillsborough","number":8238,"lon":-82.3082,"lat":27.9284},{"place":"Florida\\Holmes","number":8669,"lon":-85.8265,"lat":30.8857},{"place":"Florida\\Indian River","number":752,"lon":-80.6155,"lat":27.6831},{"place":"Florida\\Jackson","number":19279,"lon":-85.227,"lat":30.7992},{"place":"Florida\\Jefferson","number":3465,"lon":-83.8881,"lat":30.4394},{"place":"Florida\\Lafayette","number":7207,"lon":-83.1819,"lat":29.9849},{"place":"Florida\\Lake","number":11875,"lon":-81.6997,"lat":28.7502},{"place":"Florida\\Lee","number":3045,"lon":-81.8031,"lat":26.5801},{"place":"Florida\\Leon","number":2625,"lon":-84.2734,"lat":30.4609},{"place":"Florida\\Levy","number":17356,"lon":-82.7326,"lat":29.3241},{"place":"Florida\\Liberty","number":721,"lon":-84.8948,"lat":30.249},{"place":"Florida\\Madison","number":10359,"lon":-83.4599,"lat":30.4405},{"place":"Florida\\Manatee","number":8485,"lon":-82.3035,"lat":27.4724},{"place":"Florida\\Marion","number":31166,"lon":-82.0546,"lat":29.2032},{"place":"Florida\\Martin","number":1788,"lon":-80.3862,"lat":27.0778},{"place":"Florida\\Nassau","number":2515,"lon":-81.8236,"lat":30.6004},{"place":"Florida\\Okaloosa","number":5600,"lon":-86.6028,"lat":30.7399},{"place":"Florida\\Okeechobee","number":17667,"lon":-80.8942,"lat":27.4283},{"place":"Florida\\Orange","number":1658,"lon":-81.3071,"lat":28.5016},{"place":"Florida\\Osceola","number":4299,"lon":-81.15,"lat":28.0571},{"place":"Florida\\Palm Beach","number":665,"lon":-80.513,"lat":26.689},{"place":"Florida\\Pasco","number":12089,"lon":-82.3975,"lat":28.3097},{"place":"Florida\\Pinellas","number":344,"lon":-82.7311,"lat":27.9486},{"place":"Florida\\Polk","number":21541,"lon":-81.6975,"lat":27.9436},{"place":"Florida\\Putnam","number":2599,"lon":-81.7432,"lat":29.5993},{"place":"Florida\\St. Johns","number":646,"lon":-81.4286,"lat":29.8938},{"place":"Florida\\St. Lucie","number":3510,"lon":-80.4802,"lat":27.3704},{"place":"Florida\\Santa Rosa","number":3258,"lon":-87.0301,"lat":30.7456},{"place":"Florida\\Sarasota","number":2035,"lon":-82.3504,"lat":27.1778},{"place":"Florida\\Seminole","number":478,"lon":-81.2208,"lat":28.7028},{"place":"Florida\\Sumter","number":10376,"lon":-82.0772,"lat":28.6913},{"place":"Florida\\Suwannee","number":26085,"lon":-82.9854,"lat":30.1898},{"place":"Florida\\Taylor","number":1592,"lon":-83.6009,"lat":30.0493},{"place":"Florida\\Union","number":5021,"lon":-82.3703,"lat":30.0416},{"place":"Florida\\Volusia","number":8485,"lon":-81.1895,"lat":29.0525},{"place":"Florida\\Wakulla","number":711,"lon":-84.4095,"lat":30.1756},{"place":"Florida\\Walton","number":7750,"lon":-86.1718,"lat":30.6722},{"place":"Florida\\Washington","number":5811,"lon":-85.6837,"lat":30.6267},{"place":"Georgia\\Appling","number":5948,"lon":-82.3103,"lat":31.7441},{"place":"Georgia\\Atkinson","number":3733,"lon":-82.9003,"lat":31.278},{"place":"Georgia\\Bacon","number":3948,"lon":-82.48,"lat":31.5432},{"place":"Georgia\\Baker","number":4169,"lon":-84.4653,"lat":31.3102},{"place":"Georgia\\Baldwin","number":2546,"lon":-83.2541,"lat":33.069},{"place":"Georgia\\Banks","number":8508,"lon":-83.4941,"lat":34.3526},{"place":"Georgia\\Barrow","number":4613,"lon":-83.7218,"lat":33.9914},{"place":"Georgia\\Bartow","number":10152,"lon":-84.8553,"lat":34.2298},{"place":"Georgia\\Ben Hill","number":504,"lon":-83.2547,"lat":31.7606},{"place":"Georgia\\Berrien","number":3630,"lon":-83.2432,"lat":31.267},{"place":"Georgia\\Bibb","number":1712,"lon":-83.7174,"lat":32.8138},{"place":"Georgia\\Bleckley","number":4151,"lon":-83.3584,"lat":32.4355},{"place":"Georgia\\Brantley","number":2076,"lon":-81.9999,"lat":31.1922},{"place":"Georgia\\Brooks","number":6037,"lon":-83.6001,"lat":30.8379},{"place":"Georgia\\Bryan","number":170,"lon":-81.4487,"lat":32.0199},{"place":"Georgia\\Bulloch","number":3441,"lon":-81.7482,"lat":32.4025},{"place":"Georgia\\Burke","number":8323,"lon":-82.0054,"lat":33.0623},{"place":"Georgia\\Butts","number":3053,"lon":-83.9619,"lat":33.2838},{"place":"Georgia\\Calhoun","number":2964,"lon":-84.642,"lat":31.5161},{"place":"Georgia\\Camden","number":99,"lon":-81.6935,"lat":30.9402},{"place":"Georgia\\Candler","number":2319,"lon":-82.0876,"lat":32.4052},{"place":"Georgia\\Carroll","number":11935,"lon":-85.0857,"lat":33.576},{"place":"Georgia\\Catoosa","number":5572,"lon":-85.1447,"lat":34.8894},{"place":"Georgia\\Charlton","number":842,"lon":-82.1612,"lat":30.7922},{"place":"Georgia\\Chatham","number":94,"lon":-81.136,"lat":32.0048},{"place":"Georgia\\Chattooga","number":7513,"lon":-85.3499,"lat":34.4626},{"place":"Georgia\\Cherokee","number":3726,"lon":-84.4837,"lat":34.24},{"place":"Georgia\\Clarke","number":909,"lon":-83.369,"lat":33.9492},{"place":"Georgia\\Clay","number":1195,"lon":-84.9907,"lat":31.6152},{"place":"Georgia\\Clayton","number":212,"lon":-84.3693,"lat":33.5359},{"place":"Georgia\\Cobb","number":595,"lon":-84.592,"lat":33.9369},{"place":"Georgia\\Coffee","number":5739,"lon":-82.8875,"lat":31.5372},{"place":"Georgia\\Colquitt","number":4033,"lon":-83.7903,"lat":31.1719},{"place":"Georgia\\Columbia","number":1189,"lon":-82.2741,"lat":33.5458},{"place":"Georgia\\Cook","number":1698,"lon":-83.4467,"lat":31.1489},{"place":"Georgia\\Coweta","number":5796,"lon":-84.7774,"lat":33.3437},{"place":"Georgia\\Crawford","number":2110,"lon":-83.994,"lat":32.7239},{"place":"Georgia\\Crisp","number":1715,"lon":-83.8083,"lat":31.9166},{"place":"Georgia\\Dade","number":3853,"lon":-85.5035,"lat":34.8407},{"place":"Georgia\\Dawson","number":1498,"lon":-84.1778,"lat":34.4328},{"place":"Georgia\\Decatur","number":2413,"lon":-84.5844,"lat":30.8742},{"place":"Georgia\\DeKalb","number":12,"lon":-84.2343,"lat":33.766},{"place":"Georgia\\Dodge","number":4018,"lon":-83.1974,"lat":32.1692},{"place":"Georgia\\Dooly","number":1915,"lon":-83.8294,"lat":32.1481},{"place":"Georgia\\Dougherty","number":1066,"lon":-84.2358,"lat":31.5184},{"place":"Georgia\\Douglas","number":1150,"lon":-84.7711,"lat":33.6877},{"place":"Georgia\\Early","number":4589,"lon":-84.9189,"lat":31.3143},{"place":"Georgia\\Echols","number":134,"lon":-82.9021,"lat":30.7019},{"place":"Georgia\\Effingham","number":2274,"lon":-81.3402,"lat":32.3718},{"place":"Georgia\\Elbert","number":8200,"lon":-82.8386,"lat":34.1122},{"place":"Georgia\\Emanuel","number":3442,"lon":-82.3202,"lat":32.6025},{"place":"Georgia\\Evans","number":2622,"lon":-81.8915,"lat":32.1623},{"place":"Georgia\\Fannin","number":1999,"lon":-84.336,"lat":34.8563},{"place":"Georgia\\Fayette","number":1061,"lon":-84.5115,"lat":33.4022},{"place":"Georgia\\Floyd","number":9291,"lon":-85.2255,"lat":34.2475},{"place":"Georgia\\Forsyth","number":2840,"lon":-84.1357,"lat":34.2264},{"place":"Georgia\\Franklin","number":13666,"lon":-83.2294,"lat":34.3767},{"place":"Georgia\\Fulton","number":1442,"lon":-84.4675,"lat":33.7948},{"place":"Georgia\\Gilmer","number":2723,"lon":-84.4649,"lat":34.6758},{"place":"Georgia\\Glascock","number":950,"lon":-82.6267,"lat":33.2248},{"place":"Georgia\\Gordon","number":14636,"lon":-84.8919,"lat":34.4917},{"place":"Georgia\\Grady","number":2945,"lon":-84.243,"lat":30.8702},{"place":"Georgia\\Greene","number":6292,"lon":-83.1705,"lat":33.5736},{"place":"Georgia\\Gwinnett","number":1306,"lon":-84.0334,"lat":33.9492},{"place":"Georgia\\Habersham","number":8314,"lon":-83.5346,"lat":34.6256},{"place":"Georgia\\Hall","number":8004,"lon":-83.8293,"lat":34.3086},{"place":"Georgia\\Hancock","number":2670,"lon":-83.009,"lat":33.2663},{"place":"Georgia\\Haralson","number":3985,"lon":-85.2199,"lat":33.7908},{"place":"Georgia\\Harris","number":3021,"lon":-84.9157,"lat":32.7309},{"place":"Georgia\\Hart","number":11059,"lon":-82.9658,"lat":34.3508},{"place":"Georgia\\Heard","number":2680,"lon":-85.1367,"lat":33.2888},{"place":"Georgia\\Henry","number":2637,"lon":-84.1599,"lat":33.4491},{"place":"Georgia\\Houston","number":3112,"lon":-83.6929,"lat":32.4594},{"place":"Georgia\\Irwin","number":1811,"lon":-83.3089,"lat":31.6005},{"place":"Georgia\\Jackson","number":13844,"lon":-83.5638,"lat":34.1289},{"place":"Georgia\\Jasper","number":4606,"lon":-83.6946,"lat":33.3141},{"place":"Georgia\\Jeff Davis","number":2305,"lon":-82.6531,"lat":31.7954},{"place":"Georgia\\Jefferson","number":7938,"lon":-82.4271,"lat":33.0604},{"place":"Georgia\\Jenkins","number":2191,"lon":-81.9726,"lat":32.7966},{"place":"Georgia\\Johnson","number":2460,"lon":-82.6833,"lat":32.7095},{"place":"Georgia\\Jones","number":4486,"lon":-83.5672,"lat":33.0304},{"place":"Georgia\\Lamar","number":4898,"lon":-84.1623,"lat":33.0679},{"place":"Georgia\\Lanier","number":211,"lon":-83.0618,"lat":31.0185},{"place":"Georgia\\Laurens","number":8107,"lon":-82.9435,"lat":32.4631},{"place":"Georgia\\Lee","number":1426,"lon":-84.1738,"lat":31.7726},{"place":"Georgia\\Liberty","number":269,"lon":-81.4959,"lat":31.8297},{"place":"Georgia\\Lincoln","number":2499,"lon":-82.4566,"lat":33.7887},{"place":"Georgia\\Long","number":918,"lon":-81.7602,"lat":31.7644},{"place":"Georgia\\Lowndes","number":3131,"lon":-83.2788,"lat":30.8281},{"place":"Georgia\\Lumpkin","number":1929,"lon":-84.0113,"lat":34.5652},{"place":"Georgia\\McDuffie","number":4318,"lon":-82.493,"lat":33.4834},{"place":"Georgia\\Macon","number":2209,"lon":-84.0575,"lat":32.3458},{"place":"Georgia\\Madison","number":12323,"lon":-83.2089,"lat":34.1292},{"place":"Georgia\\Marion","number":3827,"lon":-84.5339,"lat":32.3456},{"place":"Georgia\\Meriwether","number":7969,"lon":-84.6998,"lat":33.0353},{"place":"Georgia\\Miller","number":2695,"lon":-84.7424,"lat":31.1539},{"place":"Georgia\\Mitchell","number":2683,"lon":-84.2132,"lat":31.2122},{"place":"Georgia\\Monroe","number":2753,"lon":-83.9338,"lat":33.0155},{"place":"Georgia\\Montgomery","number":1334,"lon":-82.5408,"lat":32.1719},{"place":"Georgia\\Morgan","number":17456,"lon":-83.4974,"lat":33.5872},{"place":"Georgia\\Murray","number":6355,"lon":-84.7632,"lat":34.7802},{"place":"Georgia\\Muscogee","number":224,"lon":-84.8772,"lat":32.5037},{"place":"Georgia\\Newton","number":4500,"lon":-83.8565,"lat":33.5557},{"place":"Georgia\\Oconee","number":6757,"lon":-83.4444,"lat":33.8302},{"place":"Georgia\\Oglethorpe","number":9513,"lon":-83.0917,"lat":33.8773},{"place":"Georgia\\Paulding","number":1813,"lon":-84.8777,"lat":33.9109},{"place":"Georgia\\Peach","number":1598,"lon":-83.8337,"lat":32.5743},{"place":"Georgia\\Pickens","number":2368,"lon":-84.4788,"lat":34.4569},{"place":"Georgia\\Pierce","number":4105,"lon":-82.238,"lat":31.3539},{"place":"Georgia\\Pike","number":3387,"lon":-84.4052,"lat":33.0799},{"place":"Georgia\\Polk","number":7303,"lon":-85.1955,"lat":33.9968},{"place":"Georgia\\Pulaski","number":502,"lon":-83.5174,"lat":32.228},{"place":"Georgia\\Putnam","number":6651,"lon":-83.3775,"lat":33.3215},{"place":"Georgia\\Rabun","number":1713,"lon":-83.4144,"lat":34.8789},{"place":"Georgia\\Randolph","number":3814,"lon":-84.7604,"lat":31.7527},{"place":"Georgia\\Richmond","number":1768,"lon":-82.0833,"lat":33.36},{"place":"Georgia\\Rockdale","number":472,"lon":-84.0349,"lat":33.6497},{"place":"Georgia\\Schley","number":1414,"lon":-84.3391,"lat":32.2546},{"place":"Georgia\\Screven","number":3833,"lon":-81.6171,"lat":32.7569},{"place":"Georgia\\Seminole","number":1230,"lon":-84.8802,"lat":30.9337},{"place":"Georgia\\Spalding","number":2911,"lon":-84.2965,"lat":33.2539},{"place":"Georgia\\Stephens","number":3118,"lon":-83.2941,"lat":34.5544},{"place":"Georgia\\Stewart","number":607,"lon":-84.8507,"lat":32.0706},{"place":"Georgia\\Sumter","number":4543,"lon":-84.2261,"lat":32.0393},{"place":"Georgia\\Talbot","number":1927,"lon":-84.5412,"lat":32.6975},{"place":"Georgia\\Taliaferro","number":2526,"lon":-82.8867,"lat":33.5629},{"place":"Georgia\\Tattnall","number":6879,"lon":-82.0706,"lat":32.0455},{"place":"Georgia\\Taylor","number":3345,"lon":-84.2487,"lat":32.5512},{"place":"Georgia\\Telfair","number":2946,"lon":-82.9638,"lat":31.9214},{"place":"Georgia\\Terrell","number":1062,"lon":-84.4517,"lat":31.7699},{"place":"Georgia\\Thomas","number":5692,"lon":-83.9364,"lat":30.8588},{"place":"Georgia\\Tift","number":1922,"lon":-83.55,"lat":31.4516},{"place":"Georgia\\Toombs","number":3467,"lon":-82.3477,"lat":32.1045},{"place":"Georgia\\Towns","number":1849,"lon":-83.7499,"lat":34.9076},{"place":"Georgia\\Treutlen","number":1251,"lon":-82.5716,"lat":32.3976},{"place":"Georgia\\Troup","number":3660,"lon":-85.0345,"lat":33.0241},{"place":"Georgia\\Turner","number":1721,"lon":-83.6565,"lat":31.7159},{"place":"Georgia\\Twiggs","number":1476,"lon":-83.452,"lat":32.6733},{"place":"Georgia\\Union","number":4702,"lon":-84.003,"lat":34.8288},{"place":"Georgia\\Upson","number":4569,"lon":-84.3083,"lat":32.8776},{"place":"Georgia\\Walker","number":15692,"lon":-85.2984,"lat":34.7232},{"place":"Georgia\\Walton","number":8562,"lon":-83.7389,"lat":33.7748},{"place":"Georgia\\Ware","number":2502,"lon":-82.4574,"lat":31.0303},{"place":"Georgia\\Warren","number":2291,"lon":-82.6885,"lat":33.4074},{"place":"Georgia\\Washington","number":6024,"lon":-82.8117,"lat":32.9733},{"place":"Georgia\\Wayne","number":3775,"lon":-81.9308,"lat":31.5523},{"place":"Georgia\\Webster","number":2066,"lon":-84.5743,"lat":32.0391},{"place":"Georgia\\Wheeler","number":929,"lon":-82.7455,"lat":32.1115},{"place":"Georgia\\White","number":3216,"lon":-83.7517,"lat":34.6416},{"place":"Georgia\\Whitfield","number":8066,"lon":-84.9716,"lat":34.797},{"place":"Georgia\\Wilcox","number":2476,"lon":-83.4709,"lat":31.9695},{"place":"Georgia\\Wilkes","number":12856,"lon":-82.7556,"lat":33.7838},{"place":"Georgia\\Wilkinson","number":1240,"lon":-83.195,"lat":32.8011},{"place":"Georgia\\Worth","number":3838,"lon":-83.8777,"lat":31.5463},{"place":"Idaho\\Ada","number":19684,"lon":-116.2351,"lat":43.4466},{"place":"Idaho\\Adams","number":14699,"lon":-116.4445,"lat":44.8929},{"place":"Idaho\\Bannock","number":33228,"lon":-112.2077,"lat":42.6632},{"place":"Idaho\\Bear Lake","number":58140,"lon":-111.3381,"lat":42.2869},{"place":"Idaho\\Benewah","number":13922,"lon":-116.6406,"lat":47.205},{"place":"Idaho\\Bingham","number":56299,"lon":-112.4066,"lat":43.2145},{"place":"Idaho\\Blaine","number":24739,"lon":-113.9825,"lat":43.4086},{"place":"Idaho\\Boise","number":2357,"lon":-115.7186,"lat":43.9839},{"place":"Idaho\\Bonner","number":18804,"lon":-116.5979,"lat":48.2908},{"place":"Idaho\\Bonneville","number":37674,"lon":-111.6345,"lat":43.3871},{"place":"Idaho\\Boundary","number":15407,"lon":-116.4502,"lat":48.7576},{"place":"Idaho\\Butte","number":37890,"lon":-113.1687,"lat":43.7218},{"place":"Idaho\\Camas","number":50501,"lon":-114.8069,"lat":43.4561},{"place":"Idaho\\Canyon","number":49496,"lon":-116.7067,"lat":43.6199},{"place":"Idaho\\Caribou","number":30408,"lon":-111.5624,"lat":42.7786},{"place":"Idaho\\Cassia","number":68288,"lon":-113.6181,"lat":42.2889},{"place":"Idaho\\Clark","number":22676,"lon":-112.3491,"lat":44.2862},{"place":"Idaho\\Clearwater","number":8185,"lon":-115.6238,"lat":46.662},{"place":"Idaho\\Custer","number":31380,"lon":-114.2758,"lat":44.241},{"place":"Idaho\\Elmore","number":41475,"lon":-115.4664,"lat":43.3551},{"place":"Idaho\\Franklin","number":48025,"lon":-111.8197,"lat":42.18},{"place":"Idaho\\Fremont","number":28678,"lon":-111.4874,"lat":44.2314},{"place":"Idaho\\Gem","number":16149,"lon":-116.3815,"lat":44.065},{"place":"Idaho\\Gooding","number":43382,"lon":-114.8165,"lat":42.9721},{"place":"Idaho\\Idaho","number":40110,"lon":-115.4603,"lat":45.8317},{"place":"Idaho\\Jefferson","number":69411,"lon":-112.3131,"lat":43.8207},{"place":"Idaho\\Jerome","number":48936,"lon":-114.2777,"lat":42.6922},{"place":"Idaho\\Kootenai","number":18712,"lon":-116.6851,"lat":47.6591},{"place":"Idaho\\Latah","number":23768,"lon":-116.6954,"lat":46.8057},{"place":"Idaho\\Lemhi","number":41102,"lon":-113.9277,"lat":44.9453},{"place":"Idaho\\Lewis","number":6878,"lon":-116.4137,"lat":46.2297},{"place":"Idaho\\Lincoln","number":28891,"lon":-114.143,"lat":43.0003},{"place":"Idaho\\Madison","number":17601,"lon":-111.6595,"lat":43.779},{"place":"Idaho\\Minidoka","number":37499,"lon":-113.6409,"lat":42.8574},{"place":"Idaho\\Nez Perce","number":10952,"lon":-116.7332,"lat":46.3191},{"place":"Idaho\\Oneida","number":36454,"lon":-112.5502,"lat":42.1971},{"place":"Idaho\\Owyhee","number":66091,"lon":-116.177,"lat":42.5887},{"place":"Idaho\\Payette","number":18607,"lon":-116.7518,"lat":44.0032},{"place":"Idaho\\Power","number":10221,"lon":-112.8419,"lat":42.6937},{"place":"Idaho\\Shoshone","number":677,"lon":-115.8763,"lat":47.339},{"place":"Idaho\\Teton","number":17608,"lon":-111.2198,"lat":43.7541},{"place":"Idaho\\Twin Falls","number":72812,"lon":-114.6885,"lat":42.366},{"place":"Idaho\\Valley","number":5484,"lon":-115.5613,"lat":44.7603},{"place":"Idaho\\Washington","number":33332,"lon":-116.7747,"lat":44.4512},{"place":"Illinois\\Adams","number":14782,"lon":-91.1868,"lat":39.9884},{"place":"Illinois\\Alexander","number":2308,"lon":-89.3414,"lat":37.2066},{"place":"Illinois\\Bond","number":4334,"lon":-89.4458,"lat":38.8859},{"place":"Illinois\\Boone","number":3908,"lon":-88.821,"lat":42.3298},{"place":"Illinois\\Brown","number":3556,"lon":-90.7523,"lat":39.9595},{"place":"Illinois\\Bureau","number":3597,"lon":-89.5194,"lat":41.4085},{"place":"Illinois\\Calhoun","number":3320,"lon":-90.6764,"lat":39.1621},{"place":"Illinois\\Carroll","number":7629,"lon":-89.9327,"lat":42.0751},{"place":"Illinois\\Cass","number":2136,"lon":-90.2489,"lat":39.9682},{"place":"Illinois\\Champaign","number":2171,"lon":-88.2054,"lat":40.1304},{"place":"Illinois\\Christian","number":1533,"lon":-89.2818,"lat":39.546},{"place":"Illinois\\Clark","number":2369,"lon":-87.7961,"lat":39.3329},{"place":"Illinois\\Clay","number":5047,"lon":-88.4956,"lat":38.7487},{"place":"Illinois\\Clinton","number":9048,"lon":-89.4268,"lat":38.601},{"place":"Illinois\\Coles","number":2447,"lon":-88.2268,"lat":39.5194},{"place":"Illinois\\Cook","number":1453,"lon":-87.8212,"lat":41.843},{"place":"Illinois\\Crawford","number":2277,"lon":-87.764,"lat":39.0027},{"place":"Illinois\\Cumberland","number":3068,"lon":-88.2459,"lat":39.2748},{"place":"Illinois\\De Kalb","number":3228,"lon":-88.7641,"lat":41.8983},{"place":"Illinois\\De Witt","number":1794,"lon":-88.9005,"lat":40.1721},{"place":"Illinois\\Douglas","number":4534,"lon":-88.2231,"lat":39.7646},{"place":"Illinois\\Du Page","number":170,"lon":-88.0958,"lat":41.8493},{"place":"Illinois\\Edgar","number":2611,"lon":-87.7475,"lat":39.6726},{"place":"Illinois\\Edwards","number":2726,"lon":-88.0542,"lat":38.4075},{"place":"Illinois\\Effingham","number":7636,"lon":-88.5918,"lat":39.0595},{"place":"Illinois\\Fayette","number":7252,"lon":-89.0352,"lat":39.0004},{"place":"Illinois\\Ford","number":1105,"lon":-88.2211,"lat":40.5874},{"place":"Illinois\\Franklin","number":5351,"lon":-88.9281,"lat":37.9896},{"place":"Illinois\\Fulton","number":6795,"lon":-90.2076,"lat":40.4724},{"place":"Illinois\\Gallatin","number":1731,"lon":-88.234,"lat":37.7647},{"place":"Illinois\\Greene","number":4481,"lon":-90.3982,"lat":39.3584},{"place":"Illinois\\Grundy","number":1939,"lon":-88.4243,"lat":41.2861},{"place":"Illinois\\Hamilton","number":3046,"lon":-88.5449,"lat":38.0784},{"place":"Illinois\\Hancock","number":8780,"lon":-91.1608,"lat":40.4076},{"place":"Illinois\\Hardin","number":4507,"lon":-88.2651,"lat":37.528},{"place":"Illinois\\Henderson","number":3541,"lon":-90.9302,"lat":40.8138},{"place":"Illinois\\Henry","number":7223,"lon":-90.1234,"lat":41.351},{"place":"Illinois\\Iroquois","number":4274,"lon":-87.8263,"lat":40.7473},{"place":"Illinois\\Jackson","number":8207,"lon":-89.383,"lat":37.7874},{"place":"Illinois\\Jasper","number":4270,"lon":-88.1606,"lat":39.013},{"place":"Illinois\\Jefferson","number":13600,"lon":-88.9264,"lat":38.294},{"place":"Illinois\\Jersey","number":3475,"lon":-90.3628,"lat":39.0856},{"place":"Illinois\\Jo Daviess","number":27286,"lon":-90.2081,"lat":42.3691},{"place":"Illinois\\Johnson","number":10129,"lon":-88.884,"lat":37.4687},{"place":"Illinois\\Kane","number":6443,"lon":-88.4288,"lat":41.9424},{"place":"Illinois\\Kankakee","number":2813,"lon":-87.8637,"lat":41.1389},{"place":"Illinois\\Kendall","number":1695,"lon":-88.432,"lat":41.5943},{"place":"Illinois\\Knox","number":7885,"lon":-90.2162,"lat":40.9287},{"place":"Illinois\\Lake","number":3072,"lon":-88.0067,"lat":42.331},{"place":"Illinois\\La Salle","number":5393,"lon":-88.8871,"lat":41.3444},{"place":"Illinois\\Lawrence","number":1367,"lon":-87.7339,"lat":38.7196},{"place":"Illinois\\Lee","number":3265,"lon":-89.297,"lat":41.7495},{"place":"Illinois\\Livingston","number":3022,"lon":-88.5598,"lat":40.8859},{"place":"Illinois\\Logan","number":1481,"lon":-89.3631,"lat":40.1231},{"place":"Illinois\\McDonough","number":5992,"lon":-90.6779,"lat":40.4497},{"place":"Illinois\\McHenry","number":13469,"lon":-88.4529,"lat":42.3304},{"place":"Illinois\\McLean","number":4525,"lon":-88.8501,"lat":40.4849},{"place":"Illinois\\Macon","number":1880,"lon":-88.9628,"lat":39.859},{"place":"Illinois\\Macoupin","number":7092,"lon":-89.9258,"lat":39.2662},{"place":"Illinois\\Madison","number":6767,"lon":-89.9057,"lat":38.8311},{"place":"Illinois\\Marion","number":6869,"lon":-88.9246,"lat":38.649},{"place":"Illinois\\Marshall","number":3134,"lon":-89.3417,"lat":41.033},{"place":"Illinois\\Mason","number":1969,"lon":-89.9162,"lat":40.237},{"place":"Illinois\\Massac","number":5201,"lon":-88.7156,"lat":37.2315},{"place":"Illinois\\Menard","number":2082,"lon":-89.7985,"lat":40.0271},{"place":"Illinois\\Mercer","number":5790,"lon":-90.7352,"lat":41.2027},{"place":"Illinois\\Monroe","number":4552,"lon":-90.1881,"lat":38.2751},{"place":"Illinois\\Montgomery","number":3992,"lon":-89.4802,"lat":39.231},{"place":"Illinois\\Morgan","number":3301,"lon":-90.2,"lat":39.7117},{"place":"Illinois\\Moultrie","number":2428,"lon":-88.624,"lat":39.6384},{"place":"Illinois\\Ogle","number":7700,"lon":-89.3212,"lat":42.0461},{"place":"Illinois\\Peoria","number":5293,"lon":-89.7624,"lat":40.7861},{"place":"Illinois\\Perry","number":4778,"lon":-89.3677,"lat":38.0863},{"place":"Illinois\\Piatt","number":834,"lon":-88.5956,"lat":40.0083},{"place":"Illinois\\Pike","number":8577,"lon":-90.8928,"lat":39.6187},{"place":"Illinois\\Pope","number":6053,"lon":-88.5616,"lat":37.4252},{"place":"Illinois\\Pulaski","number":4071,"lon":-89.132,"lat":37.2333},{"place":"Illinois\\Putnam","number":375,"lon":-89.2899,"lat":41.2052},{"place":"Illinois\\Randolph","number":8984,"lon":-89.8239,"lat":38.0504},{"place":"Illinois\\Richland","number":2622,"lon":-88.092,"lat":38.7122},{"place":"Illinois\\Rock Island","number":5051,"lon":-90.5653,"lat":41.4701},{"place":"Illinois\\St. Clair","number":3187,"lon":-89.9316,"lat":38.4649},{"place":"Illinois\\Saline","number":4519,"lon":-88.5447,"lat":37.7549},{"place":"Illinois\\Sangamon","number":4431,"lon":-89.6578,"lat":39.7588},{"place":"Illinois\\Schuyler","number":5152,"lon":-90.6119,"lat":40.1554},{"place":"Illinois\\Scott","number":1911,"lon":-90.4828,"lat":39.6436},{"place":"Illinois\\Shelby","number":5833,"lon":-88.8103,"lat":39.3893},{"place":"Illinois\\Stark","number":802,"lon":-89.7968,"lat":41.0933},{"place":"Illinois\\Stephenson","number":19441,"lon":-89.6556,"lat":42.3542},{"place":"Illinois\\Tazewell","number":2929,"lon":-89.5131,"lat":40.5082},{"place":"Illinois\\Union","number":10223,"lon":-89.258,"lat":37.4767},{"place":"Illinois\\Vermilion","number":4604,"lon":-87.7347,"lat":40.1734},{"place":"Illinois\\Wabash","number":586,"lon":-87.8446,"lat":38.4489},{"place":"Illinois\\Warren","number":3741,"lon":-90.6207,"lat":40.844},{"place":"Illinois\\Washington","number":8703,"lon":-89.4123,"lat":38.3504},{"place":"Illinois\\Wayne","number":8733,"lon":-88.4319,"lat":38.4222},{"place":"Illinois\\White","number":2870,"lon":-88.1865,"lat":38.0857},{"place":"Illinois\\Whiteside","number":4598,"lon":-89.9164,"lat":41.761},{"place":"Illinois\\Will","number":5674,"lon":-87.9839,"lat":41.443},{"place":"Illinois\\Williamson","number":10727,"lon":-88.9304,"lat":37.7339},{"place":"Illinois\\Winnebago","number":7083,"lon":-89.1591,"lat":42.3395},{"place":"Illinois\\Woodford","number":3786,"lon":-89.2085,"lat":40.7866},{"place":"Indiana\\Adams","number":8399,"lon":-84.9513,"lat":40.7439},{"place":"Indiana\\Allen","number":10452,"lon":-85.0763,"lat":41.0968},{"place":"Indiana\\Bartholomew","number":4039,"lon":-85.8954,"lat":39.2052},{"place":"Indiana\\Benton","number":1155,"lon":-87.3088,"lat":40.6024},{"place":"Indiana\\Blackford","number":1389,"lon":-85.3378,"lat":40.4705},{"place":"Indiana\\Boone","number":3714,"lon":-86.4611,"lat":40.0474},{"place":"Indiana\\Brown","number":2553,"lon":-86.2167,"lat":39.1954},{"place":"Indiana\\Carroll","number":1880,"lon":-86.5531,"lat":40.579},{"place":"Indiana\\Cass","number":4391,"lon":-86.349,"lat":40.7609},{"place":"Indiana\\Clark","number":7502,"lon":-85.7128,"lat":38.482},{"place":"Indiana\\Clay","number":3606,"lon":-87.1175,"lat":39.3923},{"place":"Indiana\\Clinton","number":1917,"lon":-86.4686,"lat":40.2972},{"place":"Indiana\\Crawford","number":7109,"lon":-86.4541,"lat":38.2988},{"place":"Indiana\\Daviess","number":10584,"lon":-87.0706,"lat":38.7054},{"place":"Indiana\\Dearborn","number":9274,"lon":-84.9835,"lat":39.1466},{"place":"Indiana\\Decatur","number":4488,"lon":-85.5064,"lat":39.3042},{"place":"Indiana\\DeKalb","number":5548,"lon":-85.0042,"lat":41.4097},{"place":"Indiana\\Delaware","number":2266,"lon":-85.4102,"lat":40.2259},{"place":"Indiana\\Dubois","number":12047,"lon":-86.8823,"lat":38.3629},{"place":"Indiana\\Elkhart","number":17686,"lon":-85.8617,"lat":41.6001},{"place":"Indiana\\Fayette","number":3201,"lon":-85.1828,"lat":39.6335},{"place":"Indiana\\Floyd","number":3255,"lon":-85.9038,"lat":38.3204},{"place":"Indiana\\Fountain","number":4138,"lon":-87.2388,"lat":40.1256},{"place":"Indiana\\Franklin","number":9053,"lon":-85.0623,"lat":39.4142},{"place":"Indiana\\Fulton","number":4905,"lon":-86.2668,"lat":41.0488},{"place":"Indiana\\Gibson","number":2944,"lon":-87.584,"lat":38.3156},{"place":"Indiana\\Grant","number":2412,"lon":-85.6609,"lat":40.5143},{"place":"Indiana\\Greene","number":14287,"lon":-86.9558,"lat":39.039},{"place":"Indiana\\Hamilton","number":2834,"lon":-86.0536,"lat":40.0659},{"place":"Indiana\\Hancock","number":3370,"lon":-85.7774,"lat":39.8115},{"place":"Indiana\\Harrison","number":16104,"lon":-86.1129,"lat":38.2022},{"place":"Indiana\\Hendricks","number":4143,"lon":-86.4987,"lat":39.7676},{"place":"Indiana\\Henry","number":5559,"lon":-85.4085,"lat":39.9262},{"place":"Indiana\\Howard","number":1866,"lon":-86.1167,"lat":40.4793},{"place":"Indiana\\Huntington","number":3563,"lon":-85.5001,"lat":40.8338},{"place":"Indiana\\Jackson","number":6788,"lon":-86.0312,"lat":38.9097},{"place":"Indiana\\Jasper","number":3335,"lon":-87.1099,"lat":41.0224},{"place":"Indiana\\Jay","number":4702,"lon":-85.0166,"lat":40.4376},{"place":"Indiana\\Jefferson","number":7903,"lon":-85.4364,"lat":38.7894},{"place":"Indiana\\Jennings","number":5312,"lon":-85.632,"lat":38.9963},{"place":"Indiana\\Johnson","number":4330,"lon":-86.0969,"lat":39.4841},{"place":"Indiana\\Knox","number":2706,"lon":-87.4192,"lat":38.6972},{"place":"Indiana\\Kosciusko","number":10152,"lon":-85.8684,"lat":41.2405},{"place":"Indiana\\LaGrange","number":27857,"lon":-85.4361,"lat":41.6598},{"place":"Indiana\\Lake","number":2399,"lon":-87.3833,"lat":41.4228},{"place":"Indiana\\LaPorte","number":6085,"lon":-86.7324,"lat":41.552},{"place":"Indiana\\Lawrence","number":16372,"lon":-86.4723,"lat":38.84},{"place":"Indiana\\Madison","number":2615,"lon":-85.7292,"lat":40.1514},{"place":"Indiana\\Marion","number":1193,"lon":-86.1339,"lat":39.7758},{"place":"Indiana\\Marshall","number":8324,"lon":-86.2577,"lat":41.3252},{"place":"Indiana\\Martin","number":4507,"lon":-86.7947,"lat":38.7085},{"place":"Indiana\\Miami","number":5711,"lon":-86.0478,"lat":40.7723},{"place":"Indiana\\Monroe","number":7669,"lon":-86.5124,"lat":39.1597},{"place":"Indiana\\Montgomery","number":2958,"lon":-86.882,"lat":40.0408},{"place":"Indiana\\Morgan","number":6155,"lon":-86.4357,"lat":39.4811},{"place":"Indiana\\Newton","number":3308,"lon":-87.3969,"lat":40.9526},{"place":"Indiana\\Noble","number":10988,"lon":-85.4325,"lat":41.4128},{"place":"Indiana\\Ohio","number":3540,"lon":-84.9777,"lat":38.9507},{"place":"Indiana\\Orange","number":7429,"lon":-86.49,"lat":38.5425},{"place":"Indiana\\Owen","number":7728,"lon":-86.8285,"lat":39.3169},{"place":"Indiana\\Parke","number":5337,"lon":-87.2034,"lat":39.7708},{"place":"Indiana\\Perry","number":7726,"lon":-86.6372,"lat":38.0866},{"place":"Indiana\\Pike","number":2185,"lon":-87.2381,"lat":38.4008},{"place":"Indiana\\Porter","number":2720,"lon":-87.0637,"lat":41.463},{"place":"Indiana\\Posey","number":2342,"lon":-87.8732,"lat":38.0253},{"place":"Indiana\\Pulaski","number":1450,"lon":-86.6902,"lat":41.0381},{"place":"Indiana\\Putnam","number":7669,"lon":-86.8388,"lat":39.6656},{"place":"Indiana\\Randolph","number":3992,"lon":-85.0229,"lat":40.1616},{"place":"Indiana\\Ripley","number":6788,"lon":-85.2754,"lat":39.1011},{"place":"Indiana\\Rush","number":3902,"lon":-85.4638,"lat":39.6158},{"place":"Indiana\\St. Joseph","number":4461,"lon":-86.2869,"lat":41.6211},{"place":"Indiana\\Scott","number":3156,"lon":-85.7425,"lat":38.6901},{"place":"Indiana\\Shelby","number":2768,"lon":-85.7911,"lat":39.5189},{"place":"Indiana\\Spencer","number":8614,"lon":-87.0124,"lat":38.0145},{"place":"Indiana\\Starke","number":1838,"lon":-86.6428,"lat":41.2797},{"place":"Indiana\\Steuben","number":6356,"lon":-85.0044,"lat":41.6596},{"place":"Indiana\\Sullivan","number":4185,"lon":-87.4185,"lat":39.0963},{"place":"Indiana\\Switzerland","number":6686,"lon":-85.0343,"lat":38.8276},{"place":"Indiana\\Tippecanoe","number":3742,"lon":-86.8858,"lat":40.3868},{"place":"Indiana\\Tipton","number":602,"lon":-86.0528,"lat":40.3077},{"place":"Indiana\\Union","number":1735,"lon":-84.9336,"lat":39.6309},{"place":"Indiana\\Vanderburgh","number":973,"lon":-87.5903,"lat":38.0253},{"place":"Indiana\\Vermillion","number":2034,"lon":-87.4637,"lat":39.8537},{"place":"Indiana\\Vigo","number":2386,"lon":-87.3922,"lat":39.4335},{"place":"Indiana\\Wabash","number":4422,"lon":-85.7936,"lat":40.8424},{"place":"Indiana\\Warren","number":3168,"lon":-87.3571,"lat":40.3488},{"place":"Indiana\\Warrick","number":3810,"lon":-87.2783,"lat":38.0935},{"place":"Indiana\\Washington","number":15111,"lon":-86.1,"lat":38.6036},{"place":"Indiana\\Wayne","number":7272,"lon":-85.0199,"lat":39.8679},{"place":"Indiana\\Wells","number":3546,"lon":-85.2403,"lat":40.7286},{"place":"Indiana\\White","number":2988,"lon":-86.8619,"lat":40.7438},{"place":"Indiana\\Whitley","number":4772,"lon":-85.5179,"lat":41.1505},{"place":"Iowa\\Adair","number":19477,"lon":-94.4779,"lat":41.3332},{"place":"Iowa\\Adams","number":12543,"lon":-94.7091,"lat":41.0317},{"place":"Iowa\\Allamakee","number":30620,"lon":-91.3707,"lat":43.2904},{"place":"Iowa\\Appanoose","number":23467,"lon":-92.8664,"lat":40.7548},{"place":"Iowa\\Audubon","number":5791,"lon":-94.9169,"lat":41.6842},{"place":"Iowa\\Benton","number":9979,"lon":-92.0528,"lat":42.0871},{"place":"Iowa\\Black Hawk","number":3661,"lon":-92.3043,"lat":42.4741},{"place":"Iowa\\Boone","number":4677,"lon":-93.9343,"lat":42.0358},{"place":"Iowa\\Bremer","number":6415,"lon":-92.315,"lat":42.777},{"place":"Iowa\\Buchanan","number":6591,"lon":-91.8306,"lat":42.4736},{"place":"Iowa\\Buena Vista","number":3332,"lon":-95.1584,"lat":42.7398},{"place":"Iowa\\Butler","number":5954,"lon":-92.7877,"lat":42.7369},{"place":"Iowa\\Calhoun","number":1515,"lon":-94.6477,"lat":42.3841},{"place":"Iowa\\Carroll","number":5304,"lon":-94.8676,"lat":42.0362},{"place":"Iowa\\Cass","number":10775,"lon":-94.9383,"lat":41.3314},{"place":"Iowa\\Cedar","number":7958,"lon":-91.1143,"lat":41.779},{"place":"Iowa\\Cerro Gordo","number":2040,"lon":-93.2618,"lat":43.0868},{"place":"Iowa\\Cherokee","number":4333,"lon":-95.6271,"lat":42.7362},{"place":"Iowa\\Chickasaw","number":7383,"lon":-92.3157,"lat":43.0653},{"place":"Iowa\\Clarke","number":18920,"lon":-93.7904,"lat":41.0338},{"place":"Iowa\\Clay","number":4208,"lon":-95.1589,"lat":43.0904},{"place":"Iowa\\Clayton","number":30197,"lon":-91.33,"lat":42.8461},{"place":"Iowa\\Clinton","number":12654,"lon":-90.5214,"lat":41.9071},{"place":"Iowa\\Crawford","number":9675,"lon":-95.3889,"lat":42.0322},{"place":"Iowa\\Dallas","number":6033,"lon":-94.0478,"lat":41.6878},{"place":"Iowa\\Davis","number":22816,"lon":-92.4024,"lat":40.757},{"place":"Iowa\\Decatur","number":25887,"lon":-93.7918,"lat":40.7519},{"place":"Iowa\\Delaware","number":19709,"lon":-91.3557,"lat":42.474},{"place":"Iowa\\Des Moines","number":3514,"lon":-91.1729,"lat":40.9341},{"place":"Iowa\\Dickinson","number":4352,"lon":-95.1554,"lat":43.3846},{"place":"Iowa\\Dubuque","number":34767,"lon":-90.8752,"lat":42.4698},{"place":"Iowa\\Emmet","number":2633,"lon":-94.6856,"lat":43.3841},{"place":"Iowa\\Fayette","number":18306,"lon":-91.8388,"lat":42.8654},{"place":"Iowa\\Floyd","number":4687,"lon":-92.7891,"lat":43.0661},{"place":"Iowa\\Franklin","number":2753,"lon":-93.2616,"lat":42.7369},{"place":"Iowa\\Fremont","number":3270,"lon":-95.6089,"lat":40.7594},{"place":"Iowa\\Greene","number":3781,"lon":-94.4005,"lat":42.0379},{"place":"Iowa\\Grundy","number":2183,"lon":-92.7856,"lat":42.409},{"place":"Iowa\\Guthrie","number":12676,"lon":-94.51,"lat":41.6857},{"place":"Iowa\\Hamilton","number":1842,"lon":-93.7076,"lat":42.3848},{"place":"Iowa\\Hancock","number":2882,"lon":-93.7338,"lat":43.0875},{"place":"Iowa\\Hardin","number":3822,"lon":-93.2394,"lat":42.3872},{"place":"Iowa\\Harrison","number":4632,"lon":-95.8152,"lat":41.6825},{"place":"Iowa\\Henry","number":8522,"lon":-91.5287,"lat":40.9978},{"place":"Iowa\\Howard","number":7118,"lon":-92.316,"lat":43.3629},{"place":"Iowa\\Humboldt","number":1889,"lon":-94.2057,"lat":42.7799},{"place":"Iowa\\Ida","number":5529,"lon":-95.5205,"lat":42.3845},{"place":"Iowa\\Iowa","number":14751,"lon":-92.0514,"lat":41.6957},{"place":"Iowa\\Jackson","number":29768,"lon":-90.5592,"lat":42.1754},{"place":"Iowa\\Jasper","number":9555,"lon":-93.0511,"lat":41.6894},{"place":"Iowa\\Jefferson","number":8669,"lon":-91.9345,"lat":41.0371},{"place":"Iowa\\Johnson","number":16401,"lon":-91.5748,"lat":41.6796},{"place":"Iowa\\Jones","number":14892,"lon":-91.1139,"lat":42.1273},{"place":"Iowa\\Keokuk","number":10741,"lon":-92.1667,"lat":41.3458},{"place":"Iowa\\Kossuth","number":2835,"lon":-94.2096,"lat":43.2127},{"place":"Iowa\\Lee","number":12616,"lon":-91.4639,"lat":40.6595},{"place":"Iowa\\Linn","number":11267,"lon":-91.5873,"lat":42.0866},{"place":"Iowa\\Louisa","number":3291,"lon":-91.2484,"lat":41.2305},{"place":"Iowa\\Lucas","number":20917,"lon":-93.334,"lat":41.0331},{"place":"Iowa\\Lyon","number":7171,"lon":-96.2069,"lat":43.3809},{"place":"Iowa\\Madison","number":18080,"lon":-94.0251,"lat":41.3347},{"place":"Iowa\\Mahaska","number":7448,"lon":-92.6314,"lat":41.3425},{"place":"Iowa\\Marion","number":11975,"lon":-93.0964,"lat":41.3382},{"place":"Iowa\\Marshall","number":6939,"lon":-92.9968,"lat":42.0415},{"place":"Iowa\\Mills","number":3669,"lon":-95.6169,"lat":41.035},{"place":"Iowa\\Mitchell","number":6476,"lon":-92.7891,"lat":43.3675},{"place":"Iowa\\Monona","number":4256,"lon":-95.9612,"lat":42.0467},{"place":"Iowa\\Monroe","number":18727,"lon":-92.8693,"lat":41.035},{"place":"Iowa\\Montgomery","number":7097,"lon":-95.1585,"lat":41.0288},{"place":"Iowa\\Muscatine","number":4975,"lon":-91.0943,"lat":41.4932},{"place":"Iowa\\O'Brien","number":2952,"lon":-95.6273,"lat":43.0886},{"place":"Iowa\\Osceola","number":1982,"lon":-95.6267,"lat":43.3844},{"place":"Iowa\\Page","number":10920,"lon":-95.1514,"lat":40.7516},{"place":"Iowa\\Palo Alto","number":2568,"lon":-94.6841,"lat":43.0915},{"place":"Iowa\\Plymouth","number":9428,"lon":-96.2041,"lat":42.7304},{"place":"Iowa\\Pocahontas","number":1529,"lon":-94.681,"lat":42.7386},{"place":"Iowa\\Polk","number":5074,"lon":-93.5795,"lat":41.6862},{"place":"Iowa\\Pottawattamie","number":7211,"lon":-95.5419,"lat":41.3361},{"place":"Iowa\\Poweshiek","number":13264,"lon":-92.5193,"lat":41.6967},{"place":"Iowa\\Ringgold","number":30582,"lon":-94.2508,"lat":40.7498},{"place":"Iowa\\Sac","number":4745,"lon":-95.1176,"lat":42.384},{"place":"Iowa\\Scott","number":4175,"lon":-90.6123,"lat":41.648},{"place":"Iowa\\Shelby","number":5279,"lon":-95.3154,"lat":41.6839},{"place":"Iowa\\Sioux","number":7003,"lon":-96.1702,"lat":43.0825},{"place":"Iowa\\Story","number":4373,"lon":-93.467,"lat":42.0354},{"place":"Iowa\\Tama","number":10718,"lon":-92.5227,"lat":42.0862},{"place":"Iowa\\Taylor","number":13641,"lon":-94.7045,"lat":40.7507},{"place":"Iowa\\Union","number":19735,"lon":-94.2516,"lat":41.0324},{"place":"Iowa\\Van Buren","number":18340,"lon":-91.9382,"lat":40.7601},{"place":"Iowa\\Wapello","number":14730,"lon":-92.4009,"lat":41.0372},{"place":"Iowa\\Warren","number":21073,"lon":-93.5697,"lat":41.3375},{"place":"Iowa\\Washington","number":8751,"lon":-91.7012,"lat":41.3441},{"place":"Iowa\\Wayne","number":24269,"lon":-93.3356,"lat":40.7518},{"place":"Iowa\\Webster","number":2041,"lon":-94.1827,"lat":42.4263},{"place":"Iowa\\Winnebago","number":1539,"lon":-93.7368,"lat":43.3863},{"place":"Iowa\\Winneshiek","number":33679,"lon":-91.8399,"lat":43.2968},{"place":"Iowa\\Woodbury","number":8998,"lon":-96.042,"lat":42.3817},{"place":"Iowa\\Worth","number":2662,"lon":-93.2609,"lat":43.3855},{"place":"Iowa\\Wright","number":1467,"lon":-93.7327,"lat":42.7371},{"place":"Kansas\\Allen","number":33451,"lon":-95.3179,"lat":37.8829},{"place":"Kansas\\Anderson","number":38163,"lon":-95.3044,"lat":38.2127},{"place":"Kansas\\Atchison","number":21759,"lon":-95.3174,"lat":39.5288},{"place":"Kansas\\Barber","number":26201,"lon":-98.6933,"lat":37.2248},{"place":"Kansas\\Barton","number":44726,"lon":-98.7557,"lat":38.475},{"place":"Kansas\\Bourbon","number":48340,"lon":-94.8596,"lat":37.8549},{"place":"Kansas\\Brown","number":14684,"lon":-95.5722,"lat":39.8306},{"place":"Kansas\\Butler","number":69878,"lon":-96.8525,"lat":37.7624},{"place":"Kansas\\Chase","number":20148,"lon":-96.6031,"lat":38.2886},{"place":"Kansas\\Chautauqua","number":14296,"lon":-96.2543,"lat":37.1479},{"place":"Kansas\\Cherokee","number":22329,"lon":-94.8632,"lat":37.1816},{"place":"Kansas\\Cheyenne","number":9190,"lon":-101.7351,"lat":39.7908},{"place":"Kansas\\Clark","number":12454,"lon":-99.8214,"lat":37.2296},{"place":"Kansas\\Clay","number":19579,"lon":-97.1662,"lat":39.3358},{"place":"Kansas\\Cloud","number":13044,"lon":-97.6492,"lat":39.4653},{"place":"Kansas\\Coffey","number":44191,"lon":-95.7457,"lat":38.2303},{"place":"Kansas\\Comanche","number":17949,"lon":-99.2843,"lat":37.183},{"place":"Kansas\\Cowley","number":38139,"lon":-96.8505,"lat":37.2252},{"place":"Kansas\\Crawford","number":30307,"lon":-94.8638,"lat":37.5104},{"place":"Kansas\\Decatur","number":10610,"lon":-100.4552,"lat":39.7887},{"place":"Kansas\\Dickinson","number":49046,"lon":-97.1526,"lat":38.8546},{"place":"Kansas\\Doniphan","number":6821,"lon":-95.1585,"lat":39.7994},{"place":"Kansas\\Douglas","number":28681,"lon":-95.3122,"lat":38.8892},{"place":"Kansas\\Edwards","number":11165,"lon":-99.3103,"lat":37.8807},{"place":"Kansas\\Elk","number":21498,"lon":-96.2535,"lat":37.4401},{"place":"Kansas\\Ellis","number":21349,"lon":-99.3177,"lat":38.9124},{"place":"Kansas\\Ellsworth","number":17922,"lon":-98.2045,"lat":38.6923},{"place":"Kansas\\Finney","number":39848,"lon":-100.7392,"lat":38.0405},{"place":"Kansas\\Ford","number":23152,"lon":-99.8863,"lat":37.6888},{"place":"Kansas\\Franklin","number":36101,"lon":-95.3002,"lat":38.5658},{"place":"Kansas\\Geary","number":12605,"lon":-96.7496,"lat":38.9897},{"place":"Kansas\\Gove","number":11344,"lon":-100.4787,"lat":38.9199},{"place":"Kansas\\Graham","number":14843,"lon":-99.8809,"lat":39.3564},{"place":"Kansas\\Grant","number":6120,"lon":-101.3047,"lat":37.5631},{"place":"Kansas\\Gray","number":28263,"lon":-100.4297,"lat":37.7352},{"place":"Kansas\\Greeley","number":5217,"lon":-101.8055,"lat":38.4756},{"place":"Kansas\\Greenwood","number":36609,"lon":-96.2401,"lat":37.8639},{"place":"Kansas\\Hamilton","number":13836,"lon":-101.7917,"lat":37.9951},{"place":"Kansas\\Harper","number":16914,"lon":-98.0818,"lat":37.185},{"place":"Kansas\\Harvey","number":16736,"lon":-97.4343,"lat":38.0329},{"place":"Kansas\\Haskell","number":15553,"lon":-100.8632,"lat":37.5619},{"place":"Kansas\\Hodgeman","number":11070,"lon":-99.8985,"lat":38.085},{"place":"Kansas\\Jackson","number":52828,"lon":-95.7972,"lat":39.4134},{"place":"Kansas\\Jefferson","number":36970,"lon":-95.3938,"lat":39.236},{"place":"Kansas\\Jewell","number":19221,"lon":-98.2215,"lat":39.7823},{"place":"Kansas\\Johnson","number":14887,"lon":-94.8346,"lat":38.8869},{"place":"Kansas\\Kearny","number":22941,"lon":-101.3201,"lat":37.9956},{"place":"Kansas\\Kingman","number":28372,"lon":-98.1381,"lat":37.5509},{"place":"Kansas\\Kiowa","number":11128,"lon":-99.2885,"lat":37.546},{"place":"Kansas\\Labette","number":40302,"lon":-95.3112,"lat":37.1998},{"place":"Kansas\\Lane","number":2604,"lon":-100.4557,"lat":38.4789},{"place":"Kansas\\Leavenworth","number":37370,"lon":-95.0486,"lat":39.2059},{"place":"Kansas\\Lincoln","number":18222,"lon":-98.2108,"lat":39.0412},{"place":"Kansas\\Linn","number":37913,"lon":-94.8537,"lat":38.2152},{"place":"Kansas\\Logan","number":6301,"lon":-101.139,"lat":38.923},{"place":"Kansas\\Lyon","number":58078,"lon":-96.1599,"lat":38.4401},{"place":"Kansas\\McPherson","number":26429,"lon":-97.6521,"lat":38.383},{"place":"Kansas\\Marion","number":45976,"lon":-97.1046,"lat":38.3478},{"place":"Kansas\\Marshall","number":19673,"lon":-96.5253,"lat":39.7795},{"place":"Kansas\\Meade","number":8092,"lon":-100.3579,"lat":37.2366},{"place":"Kansas\\Miami","number":47917,"lon":-94.8474,"lat":38.5656},{"place":"Kansas\\Mitchell","number":15541,"lon":-98.2086,"lat":39.3866},{"place":"Kansas\\Montgomery","number":37342,"lon":-95.7544,"lat":37.2024},{"place":"Kansas\\Morris","number":36478,"lon":-96.6474,"lat":38.6757},{"place":"Kansas\\Morton","number":2130,"lon":-101.8016,"lat":37.1939},{"place":"Kansas\\Nemaha","number":27385,"lon":-96.0158,"lat":39.7799},{"place":"Kansas\\Neosho","number":29538,"lon":-95.3169,"lat":37.5592},{"place":"Kansas\\Ness","number":13718,"lon":-99.9104,"lat":38.4763},{"place":"Kansas\\Norton","number":13552,"lon":-99.9032,"lat":39.7877},{"place":"Kansas\\Osage","number":53760,"lon":-95.7399,"lat":38.6456},{"place":"Kansas\\Osborne","number":12701,"lon":-98.761,"lat":39.3454},{"place":"Kansas\\Ottawa","number":22108,"lon":-97.6499,"lat":39.1219},{"place":"Kansas\\Pawnee","number":24658,"lon":-99.2377,"lat":38.1789},{"place":"Kansas\\Phillips","number":23184,"lon":-99.3471,"lat":39.7822},{"place":"Kansas\\Pottawatomie","number":50006,"lon":-96.3398,"lat":39.3691},{"place":"Kansas\\Pratt","number":11158,"lon":-98.7414,"lat":37.6389},{"place":"Kansas\\Rawlins","number":13824,"lon":-101.0696,"lat":39.7945},{"place":"Kansas\\Reno","number":52938,"lon":-98.0845,"lat":37.9456},{"place":"Kansas\\Republic","number":21384,"lon":-97.6553,"lat":39.8215},{"place":"Kansas\\Rice","number":21906,"lon":-98.2017,"lat":38.3397},{"place":"Kansas\\Riley","number":20604,"lon":-96.738,"lat":39.2905},{"place":"Kansas\\Rooks","number":21867,"lon":-99.3194,"lat":39.3507},{"place":"Kansas\\Rush","number":19103,"lon":-99.3056,"lat":38.5185},{"place":"Kansas\\Russell","number":20401,"lon":-98.764,"lat":38.9111},{"place":"Kansas\\Saline","number":27501,"lon":-97.6532,"lat":38.7751},{"place":"Kansas\\Scott","number":4317,"lon":-100.9021,"lat":38.4822},{"place":"Kansas\\Sedgwick","number":36683,"lon":-97.4692,"lat":37.6653},{"place":"Kansas\\Seward","number":8689,"lon":-100.8468,"lat":37.195},{"place":"Kansas\\Shawnee","number":24466,"lon":-95.7645,"lat":39.0418},{"place":"Kansas\\Sheridan","number":9404,"lon":-100.4387,"lat":39.3575},{"place":"Kansas\\Sherman","number":18150,"lon":-101.7182,"lat":39.3559},{"place":"Kansas\\Smith","number":14074,"lon":-98.7879,"lat":39.7829},{"place":"Kansas\\Stafford","number":22862,"lon":-98.7172,"lat":38.0243},{"place":"Kansas\\Stanton","number":3506,"lon":-101.7849,"lat":37.5614},{"place":"Kansas\\Stevens","number":4725,"lon":-101.3118,"lat":37.196},{"place":"Kansas\\Sumner","number":39825,"lon":-97.4902,"lat":37.224},{"place":"Kansas\\Thomas","number":8532,"lon":-101.0481,"lat":39.3617},{"place":"Kansas\\Trego","number":11130,"lon":-99.8766,"lat":38.9185},{"place":"Kansas\\Wabaunsee","number":37590,"lon":-96.2065,"lat":38.9405},{"place":"Kansas\\Wallace","number":4491,"lon":-101.7634,"lat":38.9156},{"place":"Kansas\\Washington","number":27837,"lon":-97.0921,"lat":39.7784},{"place":"Kansas\\Wichita","number":3876,"lon":-101.3443,"lat":38.4781},{"place":"Kansas\\Wilson","number":24043,"lon":-95.7535,"lat":37.5595},{"place":"Kansas\\Woodson","number":40837,"lon":-95.7499,"lat":37.8815},{"place":"Kansas\\Wyandotte","number":1817,"lon":-94.7692,"lat":39.1249},{"place":"Kentucky\\Adair","number":33824,"lon":-85.2951,"lat":37.0906},{"place":"Kentucky\\Allen","number":27956,"lon":-86.1839,"lat":36.7577},{"place":"Kentucky\\Anderson","number":20888,"lon":-84.9936,"lat":38.0004},{"place":"Kentucky\\Ballard","number":4661,"lon":-89.0024,"lat":37.073},{"place":"Kentucky\\Barren","number":57335,"lon":-85.9284,"lat":36.9724},{"place":"Kentucky\\Bath","number":31841,"lon":-83.735,"lat":38.1534},{"place":"Kentucky\\Bell","number":1161,"lon":-83.6758,"lat":36.726},{"place":"Kentucky\\Boone","number":18109,"lon":-84.7291,"lat":38.9643},{"place":"Kentucky\\Bourbon","number":35571,"lon":-84.2112,"lat":38.206},{"place":"Kentucky\\Boyd","number":2582,"lon":-82.6773,"lat":38.3633},{"place":"Kentucky\\Boyle","number":28691,"lon":-84.87,"lat":37.6228},{"place":"Kentucky\\Bracken","number":18765,"lon":-84.0872,"lat":38.6964},{"place":"Kentucky\\Breathitt","number":1322,"lon":-83.316,"lat":37.5253},{"place":"Kentucky\\Breckinridge","number":34401,"lon":-86.4353,"lat":37.7852},{"place":"Kentucky\\Bullitt","number":7411,"lon":-85.6982,"lat":37.9674},{"place":"Kentucky\\Butler","number":14496,"lon":-86.6743,"lat":37.2085},{"place":"Kentucky\\Caldwell","number":9874,"lon":-87.8631,"lat":37.1423},{"place":"Kentucky\\Calloway","number":6982,"lon":-88.2704,"lat":36.6248},{"place":"Kentucky\\Campbell","number":11082,"lon":-84.375,"lat":38.9519},{"place":"Kentucky\\Carlisle","number":3215,"lon":-88.96,"lat":36.8609},{"place":"Kentucky\\Carroll","number":11514,"lon":-85.13,"lat":38.6599},{"place":"Kentucky\\Carter","number":15000,"lon":-83.0343,"lat":38.3212},{"place":"Kentucky\\Casey","number":33435,"lon":-84.9384,"lat":37.2992},{"place":"Kentucky\\Christian","number":21460,"lon":-87.485,"lat":36.8925},{"place":"Kentucky\\Clark","number":30429,"lon":-84.1423,"lat":37.9702},{"place":"Kentucky\\Clay","number":3841,"lon":-83.7101,"lat":37.1651},{"place":"Kentucky\\Clinton","number":19200,"lon":-85.1379,"lat":36.7298},{"place":"Kentucky\\Crittenden","number":18117,"lon":-88.1008,"lat":37.3523},{"place":"Kentucky\\Cumberland","number":11347,"lon":-85.399,"lat":36.7916},{"place":"Kentucky\\Daviess","number":10949,"lon":-87.0886,"lat":37.7303},{"place":"Kentucky\\Edmonson","number":14576,"lon":-86.2354,"lat":37.2112},{"place":"Kentucky\\Elliott","number":8563,"lon":-83.0971,"lat":38.1157},{"place":"Kentucky\\Estill","number":8410,"lon":-83.9613,"lat":37.6916},{"place":"Kentucky\\Fayette","number":17605,"lon":-84.4562,"lat":38.0382},{"place":"Kentucky\\Fleming","number":40168,"lon":-83.6829,"lat":38.3737},{"place":"Kentucky\\Floyd","number":502,"lon":-82.7362,"lat":37.564},{"place":"Kentucky\\Franklin","number":18768,"lon":-84.8771,"lat":38.2296},{"place":"Kentucky\\Fulton","number":492,"lon":-89.1247,"lat":36.5754},{"place":"Kentucky\\Gallatin","number":6090,"lon":-84.8554,"lat":38.7461},{"place":"Kentucky\\Garrard","number":30756,"lon":-84.5366,"lat":37.6404},{"place":"Kentucky\\Grant","number":23840,"lon":-84.6142,"lat":38.6405},{"place":"Kentucky\\Graves","number":10228,"lon":-88.6476,"lat":36.7261},{"place":"Kentucky\\Grayson","number":35316,"lon":-86.3439,"lat":37.4706},{"place":"Kentucky\\Green","number":26384,"lon":-85.5652,"lat":37.2667},{"place":"Kentucky\\Greenup","number":10917,"lon":-82.9083,"lat":38.5487},{"place":"Kentucky\\Hancock","number":6452,"lon":-86.7833,"lat":37.8474},{"place":"Kentucky\\Hardin","number":32540,"lon":-85.9714,"lat":37.703},{"place":"Kentucky\\Harrison","number":38956,"lon":-84.33,"lat":38.4375},{"place":"Kentucky\\Hart","number":36830,"lon":-85.8878,"lat":37.304},{"place":"Kentucky\\Henderson","number":5170,"lon":-87.5733,"lat":37.795},{"place":"Kentucky\\Henry","number":32732,"lon":-85.121,"lat":38.4389},{"place":"Kentucky\\Hickman","number":1845,"lon":-88.9276,"lat":36.679},{"place":"Kentucky\\Hopkins","number":14954,"lon":-87.5412,"lat":37.3082},{"place":"Kentucky\\Jackson","number":17470,"lon":-84.0031,"lat":37.4221},{"place":"Kentucky\\Jefferson","number":4623,"lon":-85.6645,"lat":38.1801},{"place":"Kentucky\\Jessamine","number":22268,"lon":-84.5791,"lat":37.8705},{"place":"Kentucky\\Johnson","number":3005,"lon":-82.8259,"lat":37.8471},{"place":"Kentucky\\Kenton","number":9246,"lon":-84.5289,"lat":38.9301},{"place":"Kentucky\\Knott","number":1695,"lon":-82.9495,"lat":37.3615},{"place":"Kentucky\\Knox","number":6848,"lon":-83.8494,"lat":36.8965},{"place":"Kentucky\\Larue","number":17418,"lon":-85.7096,"lat":37.548},{"place":"Kentucky\\Laurel","number":26038,"lon":-84.1109,"lat":37.113},{"place":"Kentucky\\Lawrence","number":4000,"lon":-82.7269,"lat":38.0679},{"place":"Kentucky\\Lee","number":3416,"lon":-83.7046,"lat":37.5985},{"place":"Kentucky\\Letcher","number":223,"lon":-82.8489,"lat":37.1264},{"place":"Kentucky\\Lewis","number":15519,"lon":-83.3698,"lat":38.5399},{"place":"Kentucky\\Lincoln","number":38233,"lon":-84.6636,"lat":37.4582},{"place":"Kentucky\\Livingston","number":14027,"lon":-88.3593,"lat":37.2058},{"place":"Kentucky\\Logan","number":24444,"lon":-86.876,"lat":36.8565},{"place":"Kentucky\\Lyon","number":5916,"lon":-88.0769,"lat":37.015},{"place":"Kentucky\\McCracken","number":3012,"lon":-88.7108,"lat":37.0602},{"place":"Kentucky\\McCreary","number":2821,"lon":-84.4812,"lat":36.7424},{"place":"Kentucky\\McLean","number":4235,"lon":-87.2668,"lat":37.5271},{"place":"Kentucky\\Madison","number":51630,"lon":-84.2758,"lat":37.7207},{"place":"Kentucky\\Magoffin","number":4071,"lon":-83.0557,"lat":37.7068},{"place":"Kentucky\\Marion","number":31510,"lon":-85.2765,"lat":37.5579},{"place":"Kentucky\\Marshall","number":9735,"lon":-88.3257,"lat":36.8804},{"place":"Kentucky\\Martin","number":302,"lon":-82.5067,"lat":37.8031},{"place":"Kentucky\\Mason","number":31773,"lon":-83.8086,"lat":38.6009},{"place":"Kentucky\\Meade","number":20355,"lon":-86.2155,"lat":37.9839},{"place":"Kentucky\\Menifee","number":5775,"lon":-83.5981,"lat":37.948},{"place":"Kentucky\\Mercer","number":35139,"lon":-84.8755,"lat":37.8102},{"place":"Kentucky\\Metcalfe","number":26764,"lon":-85.6359,"lat":36.9951},{"place":"Kentucky\\Monroe","number":35622,"lon":-85.7202,"lat":36.7144},{"place":"Kentucky\\Montgomery","number":27011,"lon":-83.907,"lat":38.0337},{"place":"Kentucky\\Morgan","number":16340,"lon":-83.2517,"lat":37.9161},{"place":"Kentucky\\Muhlenberg","number":14257,"lon":-87.14,"lat":37.2129},{"place":"Kentucky\\Nelson","number":38145,"lon":-85.4854,"lat":37.8088},{"place":"Kentucky\\Nicholas","number":23827,"lon":-84.005,"lat":38.3379},{"place":"Kentucky\\Ohio","number":15705,"lon":-86.8491,"lat":37.4776},{"place":"Kentucky\\Oldham","number":12758,"lon":-85.4556,"lat":38.3921},{"place":"Kentucky\\Owen","number":29012,"lon":-84.8206,"lat":38.5074},{"place":"Kentucky\\Owsley","number":2697,"lon":-83.6791,"lat":37.4225},{"place":"Kentucky\\Pendleton","number":22003,"lon":-84.3515,"lat":38.6904},{"place":"Kentucky\\Perry","number":520,"lon":-83.2129,"lat":37.2474},{"place":"Kentucky\\Pike","number":1250,"lon":-82.3911,"lat":37.4686},{"place":"Kentucky\\Powell","number":4063,"lon":-83.8219,"lat":37.8317},{"place":"Kentucky\\Pulaski","number":49085,"lon":-84.5597,"lat":37.1102},{"place":"Kentucky\\Robertson","number":9109,"lon":-84.0361,"lat":38.5159},{"place":"Kentucky\\Rockcastle","number":19458,"lon":-84.3136,"lat":37.3667},{"place":"Kentucky\\Rowan","number":7827,"lon":-83.403,"lat":38.2008},{"place":"Kentucky\\Russell","number":19623,"lon":-85.0658,"lat":36.9794},{"place":"Kentucky\\Scott","number":26900,"lon":-84.5792,"lat":38.2855},{"place":"Kentucky\\Shelby","number":38007,"lon":-85.1975,"lat":38.2067},{"place":"Kentucky\\Simpson","number":9095,"lon":-86.5797,"lat":36.7414},{"place":"Kentucky\\Spencer","number":16196,"lon":-85.3233,"lat":38.0271},{"place":"Kentucky\\Taylor","number":21433,"lon":-85.3367,"lat":37.3602},{"place":"Kentucky\\Todd","number":10575,"lon":-87.1754,"lat":36.8341},{"place":"Kentucky\\Trigg","number":10243,"lon":-87.8701,"lat":36.8038},{"place":"Kentucky\\Trimble","number":8582,"lon":-85.345,"lat":38.6032},{"place":"Kentucky\\Union","number":6676,"lon":-87.9446,"lat":37.6548},{"place":"Kentucky\\Warren","number":35726,"lon":-86.4202,"lat":36.9977},{"place":"Kentucky\\Washington","number":34859,"lon":-85.1784,"lat":37.7601},{"place":"Kentucky\\Wayne","number":20803,"lon":-84.8244,"lat":36.8061},{"place":"Kentucky\\Webster","number":7994,"lon":-87.6796,"lat":37.5168},{"place":"Kentucky\\Whitley","number":12098,"lon":-84.146,"lat":36.7589},{"place":"Kentucky\\Wolfe","number":5356,"lon":-83.4872,"lat":37.7401},{"place":"Kentucky\\Woodford","number":20087,"lon":-84.7435,"lat":38.0353},{"place":"Louisiana\\Acadia","number":8512,"lon":-92.4072,"lat":30.2991},{"place":"Louisiana\\Allen","number":3667,"lon":-92.8236,"lat":30.6553},{"place":"Louisiana\\Ascension","number":1790,"lon":-90.9137,"lat":30.2023},{"place":"Louisiana\\Assumption","number":408,"lon":-91.0661,"lat":29.9032},{"place":"Louisiana\\Avoyelles","number":15448,"lon":-92.0057,"lat":31.0801},{"place":"Louisiana\\Beauregard","number":16620,"lon":-93.349,"lat":30.6551},{"place":"Louisiana\\Bienville","number":7039,"lon":-93.0485,"lat":32.3502},{"place":"Louisiana\\Bossier","number":10847,"lon":-93.6046,"lat":32.6814},{"place":"Louisiana\\Caddo","number":13006,"lon":-93.8884,"lat":32.5912},{"place":"Louisiana\\Calcasieu","number":10762,"lon":-93.3489,"lat":30.237},{"place":"Louisiana\\Caldwell","number":3686,"lon":-92.1204,"lat":32.09},{"place":"Louisiana\\Cameron","number":4401,"lon":-93.189,"lat":29.8904},{"place":"Louisiana\\Catahoula","number":5934,"lon":-91.8492,"lat":31.666},{"place":"Louisiana\\Claiborne","number":7996,"lon":-92.9951,"lat":32.8255},{"place":"Louisiana\\Concordia","number":2937,"lon":-91.6419,"lat":31.4551},{"place":"Louisiana\\De Soto","number":23905,"lon":-93.7383,"lat":32.0657},{"place":"Louisiana\\East Baton Rouge","number":7068,"lon":-91.0981,"lat":30.5362},{"place":"Louisiana\\East Carroll","number":1402,"lon":-91.2447,"lat":32.7237},{"place":"Louisiana\\East Feliciana","number":8827,"lon":-91.0461,"lat":30.8453},{"place":"Louisiana\\Evangeline","number":5801,"lon":-92.4045,"lat":30.7336},{"place":"Louisiana\\Franklin","number":9962,"lon":-91.6769,"lat":32.1357},{"place":"Louisiana\\Grant","number":4212,"lon":-92.5546,"lat":31.6037},{"place":"Louisiana\\Iberia","number":3068,"lon":-91.697,"lat":29.9696},{"place":"Louisiana\\Iberville","number":2134,"lon":-91.3609,"lat":30.259},{"place":"Louisiana\\Jackson","number":3188,"lon":-92.558,"lat":32.3047},{"place":"Louisiana\\Jefferson","number":454,"lon":-90.1191,"lat":29.7183},{"place":"Louisiana\\Jefferson Davis","number":6243,"lon":-92.8074,"lat":30.2698},{"place":"Louisiana\\Lafayette","number":7409,"lon":-92.0603,"lat":30.2132},{"place":"Louisiana\\Lafourche","number":9398,"lon":-90.4357,"lat":29.5747},{"place":"Louisiana\\La Salle","number":2783,"lon":-92.1644,"lat":31.6784},{"place":"Louisiana\\Lincoln","number":6990,"lon":-92.6649,"lat":32.6057},{"place":"Louisiana\\Livingston","number":3264,"lon":-90.719,"lat":30.4413},{"place":"Louisiana\\Madison","number":1269,"lon":-91.2478,"lat":32.3703},{"place":"Louisiana\\Morehouse","number":12161,"lon":-91.8079,"lat":32.8222},{"place":"Louisiana\\Natchitoches","number":27810,"lon":-93.0919,"lat":31.7267},{"place":"Louisiana\\Ouachita","number":5904,"lon":-92.1594,"lat":32.4833},{"place":"Louisiana\\Plaquemines","number":2775,"lon":-89.6242,"lat":29.4501},{"place":"Louisiana\\Pointe Coupee","number":5215,"lon":-91.6092,"lat":30.7168},{"place":"Louisiana\\Rapides","number":17697,"lon":-92.5301,"lat":31.2051},{"place":"Louisiana\\Red River","number":12218,"lon":-93.3388,"lat":32.0992},{"place":"Louisiana\\Richland","number":13439,"lon":-91.7717,"lat":32.4219},{"place":"Louisiana\\Sabine","number":9524,"lon":-93.5561,"lat":31.5695},{"place":"Louisiana\\St. Bernard","number":372,"lon":-89.5359,"lat":29.8968},{"place":"Louisiana\\St. Charles","number":1598,"lon":-90.3621,"lat":29.898},{"place":"Louisiana\\St. Helena","number":9559,"lon":-90.7101,"lat":30.8205},{"place":"Louisiana\\St. James","number":253,"lon":-90.7943,"lat":30.0274},{"place":"Louisiana\\St. John the Baptist","number":696,"lon":-90.5469,"lat":30.0975},{"place":"Louisiana\\St. Landry","number":16239,"lon":-92.0033,"lat":30.6033},{"place":"Louisiana\\St. Martin","number":2339,"lon":-91.7249,"lat":30.2268},{"place":"Louisiana\\St. Mary","number":1005,"lon":-91.4404,"lat":29.7232},{"place":"Louisiana\\St. Tammany","number":5068,"lon":-89.9453,"lat":30.4686},{"place":"Louisiana\\Tangipahoa","number":21119,"lon":-90.4138,"lat":30.6533},{"place":"Louisiana\\Tensas","number":422,"lon":-91.333,"lat":32.0077},{"place":"Louisiana\\Terrebonne","number":6857,"lon":-90.8406,"lat":29.4312},{"place":"Louisiana\\Union","number":11755,"lon":-92.3803,"lat":32.8336},{"place":"Louisiana\\Vermilion","number":13819,"lon":-92.3235,"lat":29.861},{"place":"Louisiana\\Vernon","number":5554,"lon":-93.1825,"lat":31.108},{"place":"Louisiana\\Washington","number":16263,"lon":-90.0338,"lat":30.8587},{"place":"Louisiana\\Webster","number":8230,"lon":-93.3346,"lat":32.7162},{"place":"Louisiana\\West Baton Rouge","number":871,"lon":-91.3283,"lat":30.4656},{"place":"Louisiana\\West Carroll","number":6786,"lon":-91.4635,"lat":32.7883},{"place":"Louisiana\\West Feliciana","number":8489,"lon":-91.4213,"lat":30.8824},{"place":"Louisiana\\Winn","number":3209,"lon":-92.6347,"lat":31.9468},{"place":"Maine\\Androscoggin","number":15190,"lon":-70.2034,"lat":44.1716},{"place":"Maine\\Aroostook","number":27362,"lon":-68.6019,"lat":46.6657},{"place":"Maine\\Cumberland","number":14498,"lon":-70.428,"lat":43.8725},{"place":"Maine\\Franklin","number":7506,"lon":-70.4447,"lat":44.9806},{"place":"Maine\\Hancock","number":2540,"lon":-68.3587,"lat":44.7146},{"place":"Maine\\Kennebec","number":22802,"lon":-69.7662,"lat":44.4188},{"place":"Maine\\Knox","number":4205,"lon":-69.2406,"lat":44.1829},{"place":"Maine\\Lincoln","number":5214,"lon":-69.5431,"lat":44.0887},{"place":"Maine\\Oxford","number":9261,"lon":-70.764,"lat":44.5186},{"place":"Maine\\Penobscot","number":19068,"lon":-68.6537,"lat":45.4053},{"place":"Maine\\Piscataquis","number":6261,"lon":-69.2878,"lat":45.8392},{"place":"Maine\\Sagadahoc","number":3928,"lon":-69.8682,"lat":43.9898},{"place":"Maine\\Somerset","number":20877,"lon":-69.9603,"lat":45.5198},{"place":"Maine\\Waldo","number":15950,"lon":-69.1623,"lat":44.5186},{"place":"Maine\\Washington","number":2948,"lon":-67.6458,"lat":45.0499},{"place":"Maine\\York","number":15496,"lon":-70.7122,"lat":43.4872},{"place":"Maryland\\Allegany","number":8162,"lon":-78.6958,"lat":39.6245},{"place":"Maryland\\Anne Arundel","number":3215,"lon":-76.6261,"lat":39.0052},{"place":"Maryland\\Baltimore","number":7330,"lon":-76.6496,"lat":39.4729},{"place":"Maryland\\Calvert","number":2172,"lon":-76.5875,"lat":38.5539},{"place":"Maryland\\Caroline","number":3001,"lon":-75.8421,"lat":38.8724},{"place":"Maryland\\Carroll","number":21009,"lon":-77.033,"lat":39.5648},{"place":"Maryland\\Cecil","number":6169,"lon":-75.9471,"lat":39.5839},{"place":"Maryland\\Charles","number":4208,"lon":-77.0419,"lat":38.5003},{"place":"Maryland\\Dorchester","number":693,"lon":-76.0071,"lat":38.4853},{"place":"Maryland\\Frederick","number":36810,"lon":-77.4078,"lat":39.4774},{"place":"Maryland\\Garrett","number":23922,"lon":-79.2732,"lat":39.5413},{"place":"Maryland\\Harford","number":8449,"lon":-76.326,"lat":39.5657},{"place":"Maryland\\Howard","number":4007,"lon":-76.936,"lat":39.2491},{"place":"Maryland\\Kent","number":3601,"lon":-76.0356,"lat":39.2572},{"place":"Maryland\\Montgomery","number":8385,"lon":-77.2202,"lat":39.1383},{"place":"Maryland\\Prince George's","number":2609,"lon":-76.8638,"lat":38.8281},{"place":"Maryland\\Queen Anne's","number":3165,"lon":-75.9886,"lat":39.0836},{"place":"Maryland\\St. Mary's","number":4929,"lon":-76.6296,"lat":38.3023},{"place":"Maryland\\Somerset","number":882,"lon":-75.7365,"lat":38.1226},{"place":"Maryland\\Talbot","number":803,"lon":-76.0929,"lat":38.7727},{"place":"Maryland\\Washington","number":24310,"lon":-77.8208,"lat":39.6113},{"place":"Maryland\\Wicomico","number":1799,"lon":-75.6286,"lat":38.3742},{"place":"Maryland\\Worcester","number":1213,"lon":-75.3442,"lat":38.2265},{"place":"Massachusetts\\Berkshire","number":12708,"lon":-73.2049,"lat":42.3678},{"place":"Massachusetts\\Bristol","number":4951,"lon":-71.1095,"lat":41.8054},{"place":"Massachusetts\\Dukes","number":362,"lon":-70.6348,"lat":41.3852},{"place":"Massachusetts\\Essex","number":3404,"lon":-70.9777,"lat":42.6698},{"place":"Massachusetts\\Franklin","number":9795,"lon":-72.5914,"lat":42.5831},{"place":"Massachusetts\\Hampden","number":5545,"lon":-72.6253,"lat":42.1367},{"place":"Massachusetts\\Hampshire","number":9482,"lon":-72.6591,"lat":42.3392},{"place":"Massachusetts\\Middlesex","number":5491,"lon":-71.3899,"lat":42.4844},{"place":"Massachusetts\\Norfolk","number":1543,"lon":-71.2248,"lat":42.157},{"place":"Massachusetts\\Plymouth","number":2399,"lon":-70.8156,"lat":41.9568},{"place":"Massachusetts\\Worcester","number":20754,"lon":-71.9074,"lat":42.354},{"place":"Michigan\\Alcona","number":12070,"lon":-83.595,"lat":44.6887},{"place":"Michigan\\Alger","number":6401,"lon":-86.6185,"lat":46.4075},{"place":"Michigan\\Allegan","number":23674,"lon":-85.8852,"lat":42.59},{"place":"Michigan\\Alpena","number":19843,"lon":-83.6291,"lat":45.039},{"place":"Michigan\\Antrim","number":11242,"lon":-85.1362,"lat":45.0024},{"place":"Michigan\\Arenac","number":6266,"lon":-83.892,"lat":44.0705},{"place":"Michigan\\Baraga","number":3954,"lon":-88.3761,"lat":46.6641},{"place":"Michigan\\Barry","number":22645,"lon":-85.312,"lat":42.5933},{"place":"Michigan\\Bay","number":5789,"lon":-83.9875,"lat":43.7056},{"place":"Michigan\\Benzie","number":1893,"lon":-86.0064,"lat":44.6432},{"place":"Michigan\\Berrien","number":4937,"lon":-86.4185,"lat":41.9596},{"place":"Michigan\\Branch","number":10201,"lon":-85.0643,"lat":41.9265},{"place":"Michigan\\Calhoun","number":12315,"lon":-85.0027,"lat":42.2456},{"place":"Michigan\\Cass","number":8035,"lon":-85.9909,"lat":41.9199},{"place":"Michigan\\Charlevoix","number":10933,"lon":-85.0341,"lat":45.2251},{"place":"Michigan\\Cheboygan","number":14275,"lon":-84.5058,"lat":45.4479},{"place":"Michigan\\Chippewa","number":44036,"lon":-84.724,"lat":46.3285},{"place":"Michigan\\Clare","number":15470,"lon":-84.8428,"lat":43.9913},{"place":"Michigan\\Clinton","number":21801,"lon":-84.5943,"lat":42.949},{"place":"Michigan\\Crawford","number":537,"lon":-84.6001,"lat":44.685},{"place":"Michigan\\Delta","number":19733,"lon":-86.9351,"lat":45.9242},{"place":"Michigan\\Dickinson","number":9294,"lon":-87.8834,"lat":46.0117},{"place":"Michigan\\Eaton","number":13397,"lon":-84.8379,"lat":42.599},{"place":"Michigan\\Emmet","number":11240,"lon":-84.8896,"lat":45.5134},{"place":"Michigan\\Genesee","number":9897,"lon":-83.7035,"lat":43.028},{"place":"Michigan\\Gladwin","number":12594,"lon":-84.3786,"lat":43.9929},{"place":"Michigan\\Gogebic","number":1307,"lon":-89.6866,"lat":46.401},{"place":"Michigan\\Grand Traverse","number":9478,"lon":-85.5544,"lat":44.6739},{"place":"Michigan\\Gratiot","number":17429,"lon":-84.6044,"lat":43.2969},{"place":"Michigan\\Hillsdale","number":16046,"lon":-84.5966,"lat":41.8966},{"place":"Michigan\\Houghton","number":6794,"lon":-88.6849,"lat":46.8961},{"place":"Michigan\\Huron","number":23334,"lon":-83.013,"lat":43.8392},{"place":"Michigan\\Ingham","number":13646,"lon":-84.3682,"lat":42.604},{"place":"Michigan\\Ionia","number":24652,"lon":-85.0706,"lat":42.9475},{"place":"Michigan\\Iosco","number":11270,"lon":-83.6364,"lat":44.3592},{"place":"Michigan\\Iron","number":5990,"lon":-88.538,"lat":46.2119},{"place":"Michigan\\Isabella","number":22775,"lon":-84.8436,"lat":43.6408},{"place":"Michigan\\Jackson","number":18014,"lon":-84.4193,"lat":42.2505},{"place":"Michigan\\Kalamazoo","number":9954,"lon":-85.5254,"lat":42.247},{"place":"Michigan\\Kalkaska","number":2901,"lon":-85.0793,"lat":44.6883},{"place":"Michigan\\Kent","number":19812,"lon":-85.5457,"lat":43.0326},{"place":"Michigan\\Lake","number":6195,"lon":-85.8047,"lat":43.9935},{"place":"Michigan\\Lapeer","number":21026,"lon":-83.2213,"lat":43.0991},{"place":"Michigan\\Leelanau","number":5715,"lon":-85.77,"lat":44.9209},{"place":"Michigan\\Lenawee","number":15145,"lon":-84.0669,"lat":41.907},{"place":"Michigan\\Livingston","number":10794,"lon":-83.9067,"lat":42.6089},{"place":"Michigan\\Luce","number":3061,"lon":-85.5471,"lat":46.4669},{"place":"Michigan\\Mackinac","number":7862,"lon":-85.1212,"lat":46.0937},{"place":"Michigan\\Macomb","number":4016,"lon":-82.9281,"lat":42.7035},{"place":"Michigan\\Manistee","number":4999,"lon":-86.0525,"lat":44.3371},{"place":"Michigan\\Marquette","number":6777,"lon":-87.6483,"lat":46.4326},{"place":"Michigan\\Mason","number":13332,"lon":-86.2471,"lat":43.9945},{"place":"Michigan\\Mecosta","number":26473,"lon":-85.3255,"lat":43.6408},{"place":"Michigan\\Menominee","number":24900,"lon":-87.567,"lat":45.5748},{"place":"Michigan\\Midland","number":7305,"lon":-84.3839,"lat":43.6479},{"place":"Michigan\\Missaukee","number":28798,"lon":-85.0814,"lat":44.3412},{"place":"Michigan\\Monroe","number":3827,"lon":-83.5371,"lat":41.9423},{"place":"Michigan\\Montcalm","number":23428,"lon":-85.154,"lat":43.311},{"place":"Michigan\\Montmorency","number":6167,"lon":-84.121,"lat":45.0291},{"place":"Michigan\\Muskegon","number":11688,"lon":-86.137,"lat":43.2879},{"place":"Michigan\\Newaygo","number":23888,"lon":-85.8047,"lat":43.5536},{"place":"Michigan\\Oakland","number":6813,"lon":-83.3824,"lat":42.6677},{"place":"Michigan\\Oceana","number":12030,"lon":-86.2544,"lat":43.6368},{"place":"Michigan\\Ogemaw","number":17554,"lon":-84.1217,"lat":44.3398},{"place":"Michigan\\Ontonagon","number":11132,"lon":-89.3197,"lat":46.6642},{"place":"Michigan\\Osceola","number":36249,"lon":-85.3234,"lat":43.9913},{"place":"Michigan\\Oscoda","number":4280,"lon":-84.1252,"lat":44.6835},{"place":"Michigan\\Otsego","number":7546,"lon":-84.5935,"lat":45.0182},{"place":"Michigan\\Ottawa","number":20824,"lon":-85.9868,"lat":42.9615},{"place":"Michigan\\Presque Isle","number":15999,"lon":-83.9148,"lat":45.3455},{"place":"Michigan\\Roscommon","number":1536,"lon":-84.5972,"lat":44.3369},{"place":"Michigan\\Saginaw","number":5137,"lon":-84.05,"lat":43.3376},{"place":"Michigan\\St. Clair","number":16798,"lon":-82.6986,"lat":42.9578},{"place":"Michigan\\St. Joseph","number":10256,"lon":-85.5266,"lat":41.927},{"place":"Michigan\\Sanilac","number":32810,"lon":-82.821,"lat":43.4278},{"place":"Michigan\\Schoolcraft","number":2566,"lon":-86.2138,"lat":46.1965},{"place":"Michigan\\Shiawassee","number":15229,"lon":-84.1382,"lat":42.9575},{"place":"Michigan\\Tuscola","number":15262,"lon":-83.4152,"lat":43.4712},{"place":"Michigan\\Van Buren","number":10527,"lon":-86.0148,"lat":42.2491},{"place":"Michigan\\Washtenaw","number":17660,"lon":-83.8354,"lat":42.2604},{"place":"Michigan\\Wayne","number":806,"lon":-83.2859,"lat":42.2954},{"place":"Michigan\\Wexford","number":9648,"lon":-85.5712,"lat":44.3434},{"place":"Minnesota\\Aitkin","number":34513,"lon":-93.4056,"lat":46.6077},{"place":"Minnesota\\Anoka","number":5321,"lon":-93.2488,"lat":45.2835},{"place":"Minnesota\\Becker","number":33360,"lon":-95.6586,"lat":46.9351},{"place":"Minnesota\\Beltrami","number":37162,"lon":-94.9156,"lat":47.9675},{"place":"Minnesota\\Benton","number":20374,"lon":-94.0055,"lat":45.7129},{"place":"Minnesota\\Big Stone","number":3216,"lon":-96.3908,"lat":45.4269},{"place":"Minnesota\\Blue Earth","number":3067,"lon":-94.0737,"lat":44.049},{"place":"Minnesota\\Brown","number":6039,"lon":-94.7258,"lat":44.2543},{"place":"Minnesota\\Carlton","number":34391,"lon":-92.6707,"lat":46.5948},{"place":"Minnesota\\Carver","number":13515,"lon":-93.8048,"lat":44.8314},{"place":"Minnesota\\Cass","number":36961,"lon":-94.3155,"lat":46.9573},{"place":"Minnesota\\Chippewa","number":3743,"lon":-95.5612,"lat":45.0269},{"place":"Minnesota\\Chisago","number":13369,"lon":-92.9187,"lat":45.5113},{"place":"Minnesota\\Clay","number":14005,"lon":-96.4735,"lat":46.8935},{"place":"Minnesota\\Clearwater","number":32408,"lon":-95.369,"lat":47.58},{"place":"Minnesota\\Cottonwood","number":4399,"lon":-95.1894,"lat":44.0198},{"place":"Minnesota\\Crow Wing","number":22496,"lon":-94.0701,"lat":46.4813},{"place":"Minnesota\\Dakota","number":8824,"lon":-93.0689,"lat":44.6839},{"place":"Minnesota\\Dodge","number":6278,"lon":-92.8627,"lat":44.0304},{"place":"Minnesota\\Douglas","number":18362,"lon":-95.4526,"lat":45.9397},{"place":"Minnesota\\Faribault","number":2639,"lon":-93.9559,"lat":43.6842},{"place":"Minnesota\\Fillmore","number":39397,"lon":-92.091,"lat":43.6832},{"place":"Minnesota\\Freeborn","number":4274,"lon":-93.3529,"lat":43.6849},{"place":"Minnesota\\Goodhue","number":26477,"lon":-92.7272,"lat":44.4179},{"place":"Minnesota\\Grant","number":1989,"lon":-96.005,"lat":45.9398},{"place":"Minnesota\\Hennepin","number":7524,"lon":-93.4787,"lat":45.016},{"place":"Minnesota\\Houston","number":29485,"lon":-91.4858,"lat":43.6803},{"place":"Minnesota\\Hubbard","number":15996,"lon":-94.9075,"lat":47.1055},{"place":"Minnesota\\Isanti","number":10771,"lon":-93.2944,"lat":45.5733},{"place":"Minnesota\\Itasca","number":22422,"lon":-93.6104,"lat":47.5027},{"place":"Minnesota\\Jackson","number":2926,"lon":-95.1683,"lat":43.6829},{"place":"Minnesota\\Kanabec","number":24708,"lon":-93.2912,"lat":45.9572},{"place":"Minnesota\\Kandiyohi","number":13519,"lon":-95.0005,"lat":45.1581},{"place":"Minnesota\\Kittson","number":13100,"lon":-96.7649,"lat":48.7758},{"place":"Minnesota\\Koochiching","number":14701,"lon":-93.7587,"lat":48.2442},{"place":"Minnesota\\Lac qui Parle","number":8063,"lon":-96.1639,"lat":45.0021},{"place":"Minnesota\\Lake","number":1332,"lon":-91.4285,"lat":47.6357},{"place":"Minnesota\\Lake of the Woods","number":9457,"lon":-94.8853,"lat":48.7758},{"place":"Minnesota\\Le Sueur","number":6547,"lon":-93.7265,"lat":44.3828},{"place":"Minnesota\\Lincoln","number":8698,"lon":-96.2465,"lat":44.4232},{"place":"Minnesota\\Lyon","number":6555,"lon":-95.8282,"lat":44.4285},{"place":"Minnesota\\McLeod","number":13951,"lon":-94.2731,"lat":44.8293},{"place":"Minnesota\\Mahnomen","number":6073,"lon":-95.7999,"lat":47.3263},{"place":"Minnesota\\Marshall","number":18632,"lon":-96.367,"lat":48.3553},{"place":"Minnesota\\Martin","number":1936,"lon":-94.5638,"lat":43.6823},{"place":"Minnesota\\Meeker","number":13910,"lon":-94.5233,"lat":45.1291},{"place":"Minnesota\\Mille Lacs","number":25042,"lon":-93.6333,"lat":45.9493},{"place":"Minnesota\\Morrison","number":71983,"lon":-94.2689,"lat":46.0226},{"place":"Minnesota\\Mower","number":7241,"lon":-92.7599,"lat":43.6805},{"place":"Minnesota\\Murray","number":9296,"lon":-95.7613,"lat":44.0381},{"place":"Minnesota\\Nicollet","number":5001,"lon":-94.2461,"lat":44.365},{"place":"Minnesota\\Nobles","number":6214,"lon":-95.7605,"lat":43.6815},{"place":"Minnesota\\Norman","number":7464,"lon":-96.44,"lat":47.327},{"place":"Minnesota\\Olmsted","number":18813,"lon":-92.4009,"lat":44.014},{"place":"Minnesota\\Otter Tail","number":83244,"lon":-95.6957,"lat":46.4104},{"place":"Minnesota\\Pennington","number":15439,"lon":-96.0057,"lat":48.0659},{"place":"Minnesota\\Pine","number":48338,"lon":-92.7361,"lat":46.1274},{"place":"Minnesota\\Pipestone","number":12414,"lon":-96.2392,"lat":44.0333},{"place":"Minnesota\\Polk","number":21064,"lon":-96.3927,"lat":47.776},{"place":"Minnesota\\Pope","number":11744,"lon":-95.4425,"lat":45.5932},{"place":"Minnesota\\Red Lake","number":7335,"lon":-96.0766,"lat":47.8732},{"place":"Minnesota\\Redwood","number":4687,"lon":-95.2509,"lat":44.4195},{"place":"Minnesota\\Renville","number":5222,"lon":-94.9422,"lat":44.7369},{"place":"Minnesota\\Rice","number":15825,"lon":-93.2971,"lat":44.3635},{"place":"Minnesota\\Rock","number":7383,"lon":-96.2383,"lat":43.6761},{"place":"Minnesota\\Roseau","number":32335,"lon":-95.7866,"lat":48.7733},{"place":"Minnesota\\St. Louis","number":43932,"lon":-92.4599,"lat":47.6098},{"place":"Minnesota\\Scott","number":12774,"lon":-93.5345,"lat":44.6596},{"place":"Minnesota\\Sherburne","number":6582,"lon":-93.7811,"lat":45.4576},{"place":"Minnesota\\Sibley","number":8420,"lon":-94.2261,"lat":44.5911},{"place":"Minnesota\\Stearns","number":109775,"lon":-94.6138,"lat":45.5611},{"place":"Minnesota\\Steele","number":6393,"lon":-93.2312,"lat":44.0304},{"place":"Minnesota\\Stevens","number":8990,"lon":-95.9953,"lat":45.5924},{"place":"Minnesota\\Swift","number":6199,"lon":-95.6759,"lat":45.2869},{"place":"Minnesota\\Todd","number":52846,"lon":-94.8946,"lat":46.0781},{"place":"Minnesota\\Traverse","number":1932,"lon":-96.4652,"lat":45.7768},{"place":"Minnesota\\Wabasha","number":32823,"lon":-92.2227,"lat":44.2932},{"place":"Minnesota\\Wadena","number":24502,"lon":-94.9595,"lat":46.589},{"place":"Minnesota\\Waseca","number":3194,"lon":-93.5941,"lat":44.0323},{"place":"Minnesota\\Washington","number":9629,"lon":-92.8895,"lat":45.0396},{"place":"Minnesota\\Watonwan","number":1308,"lon":-94.6183,"lat":43.9888},{"place":"Minnesota\\Wilkin","number":5003,"lon":-96.4568,"lat":46.3647},{"place":"Minnesota\\Winona","number":41554,"lon":-91.7792,"lat":43.997},{"place":"Minnesota\\Wright","number":23426,"lon":-93.9639,"lat":45.1826},{"place":"Minnesota\\Yellow Medicine","number":7174,"lon":-95.8575,"lat":44.7256},{"place":"Mississippi\\Adams","number":1927,"lon":-91.3534,"lat":31.4879},{"place":"Mississippi\\Alcorn","number":7877,"lon":-88.5812,"lat":34.8804},{"place":"Mississippi\\Amite","number":11955,"lon":-90.8095,"lat":31.1763},{"place":"Mississippi\\Attala","number":8204,"lon":-89.5839,"lat":33.0858},{"place":"Mississippi\\Benton","number":3997,"lon":-89.1889,"lat":34.8186},{"place":"Mississippi\\Bolivar","number":2716,"lon":-90.8875,"lat":33.8005},{"place":"Mississippi\\Calhoun","number":9345,"lon":-89.3335,"lat":33.9412},{"place":"Mississippi\\Carroll","number":9347,"lon":-89.923,"lat":33.451},{"place":"Mississippi\\Chickasaw","number":13182,"lon":-88.9426,"lat":33.9209},{"place":"Mississippi\\Choctaw","number":4042,"lon":-89.2459,"lat":33.3443},{"place":"Mississippi\\Claiborne","number":5093,"lon":-90.9117,"lat":31.9813},{"place":"Mississippi\\Clarke","number":6659,"lon":-88.6861,"lat":32.0448},{"place":"Mississippi\\Clay","number":10127,"lon":-88.7823,"lat":33.657},{"place":"Mississippi\\Coahoma","number":780,"lon":-90.6083,"lat":34.2361},{"place":"Mississippi\\Copiah","number":8101,"lon":-90.4575,"lat":31.8737},{"place":"Mississippi\\Covington","number":10533,"lon":-89.5589,"lat":31.6401},{"place":"Mississippi\\DeSoto","number":6441,"lon":-89.9934,"lat":34.8767},{"place":"Mississippi\\Forrest","number":3614,"lon":-89.2584,"lat":31.1946},{"place":"Mississippi\\Franklin","number":4471,"lon":-90.9067,"lat":31.4798},{"place":"Mississippi\\George","number":5936,"lon":-88.6399,"lat":30.8638},{"place":"Mississippi\\Greene","number":5040,"lon":-88.6387,"lat":31.2136},{"place":"Mississippi\\Grenada","number":5321,"lon":-89.7985,"lat":33.7712},{"place":"Mississippi\\Hancock","number":2301,"lon":-89.4878,"lat":30.4295},{"place":"Mississippi\\Harrison","number":3269,"lon":-89.1151,"lat":30.5251},{"place":"Mississippi\\Hinds","number":18139,"lon":-90.4517,"lat":32.2713},{"place":"Mississippi\\Holmes","number":8165,"lon":-90.0978,"lat":33.1277},{"place":"Mississippi\\Issaquena","number":42,"lon":-90.9928,"lat":32.7404},{"place":"Mississippi\\Itawamba","number":6264,"lon":-88.3613,"lat":34.2781},{"place":"Mississippi\\Jackson","number":2730,"lon":-88.6321,"lat":30.5612},{"place":"Mississippi\\Jasper","number":8241,"lon":-89.1142,"lat":32.0259},{"place":"Mississippi\\Jefferson","number":4372,"lon":-91.0365,"lat":31.7381},{"place":"Mississippi\\Jefferson Davis","number":5896,"lon":-89.8308,"lat":31.5763},{"place":"Mississippi\\Jones","number":13199,"lon":-89.1694,"lat":31.6289},