[{"place":"Alabama\\Autauga","number":525,"lon":-86.6456,"lat":32.5401},{"place":"Alabama\\Baldwin","number":34216,"lon":-87.7263,"lat":30.7383},{"place":"Alabama\\Barbour","number":3583,"lon":-85.3973,"lat":31.874},{"place":"Alabama\\Blount","number":459,"lon":-86.5627,"lat":33.9904},{"place":"Alabama\\Bullock","number":1387,"lon":-85.7168,"lat":32.1063},{"place":"Alabama\\Coffee","number":14784,"lon":-85.9944,"lat":31.3985},{"place":"Alabama\\Conecuh","number":1013,"lon":-86.9907,"lat":31.4358},{"place":"Alabama\\Covington","number":9024,"lon":-86.4566,"lat":31.2597},{"place":"Alabama\\Crenshaw","number":2174,"lon":-86.3196,"lat":31.7359},{"place":"Alabama\\Dale","number":11877,"lon":-85.6191,"lat":31.4309},{"place":"Alabama\\Dallas","number":1720,"lon":-87.0977,"lat":32.3267},{"place":"Alabama\\Escambia","number":15467,"lon":-87.1575,"lat":31.1334},{"place":"Alabama\\Fayette","number":2950,"lon":-87.7364,"lat":33.7219},{"place":"Alabama\\Geneva","number":21639,"lon":-85.8444,"lat":31.0999},{"place":"Alabama\\Henry","number":20308,"lon":-85.2541,"lat":31.516},{"place":"Alabama\\Houston","number":42939,"lon":-85.3154,"lat":31.1525},{"place":"Alabama\\Lee","number":1898,"lon":-85.3553,"lat":32.6099},{"place":"Alabama\\Mobile","number":8279,"lon":-88.207,"lat":30.8136},{"place":"Alabama\\Monroe","number":9804,"lon":-87.364,"lat":31.5722},{"place":"Alabama\\Perry","number":1095,"lon":-87.2841,"lat":32.6376},{"place":"Alabama\\Pike","number":3245,"lon":-85.9418,"lat":31.8055},{"place":"Alabama\\Russell","number":3755,"lon":-85.1941,"lat":32.2952},{"place":"Alabama\\Washington","number":2952,"lon":-88.2056,"lat":31.4132},{"place":"Arkansas\\Lawrence","number":5012,"lon":-91.1179,"lat":36.0375},{"place":"Arkansas\\Poinsett","number":2068,"lon":-90.6674,"lat":35.5678},{"place":"Arkansas\\Randolph","number":2768,"lon":-91.0407,"lat":36.3458},{"place":"Arkansas\\White","number":1344,"lon":-91.7456,"lat":35.2527},{"place":"California\\Fresno","number":20,"lon":-119.641,"lat":36.7537},{"place":"Florida\\Alachua","number":6633,"lon":-82.3578,"lat":29.6692},{"place":"Florida\\Calhoun","number":3333,"lon":-85.2136,"lat":30.4147},{"place":"Florida\\Columbia","number":6300,"lon":-82.6212,"lat":30.2128},{"place":"Florida\\Escambia","number":13792,"lon":-87.3966,"lat":30.721},{"place":"Florida\\Gilchrist","number":10351,"lon":-82.8031,"lat":29.7238},{"place":"Florida\\Hamilton","number":8350,"lon":-82.9354,"lat":30.4873},{"place":"Florida\\Holmes","number":7471,"lon":-85.8265,"lat":30.8857},{"place":"Florida\\Jackson","number":29180,"lon":-85.227,"lat":30.7992},{"place":"Florida\\Jefferson","number":1869,"lon":-83.8881,"lat":30.4394},{"place":"Florida\\Lafayette","number":3955,"lon":-83.1819,"lat":29.9849},{"place":"Florida\\Levy","number":23908,"lon":-82.7326,"lat":29.3241},{"place":"Florida\\Madison","number":7361,"lon":-83.4599,"lat":30.4405},{"place":"Florida\\Marion","number":9597,"lon":-82.0546,"lat":29.2032},{"place":"Florida\\Okaloosa","number":3040,"lon":-86.6028,"lat":30.7399},{"place":"Florida\\Putnam","number":3,"lon":-81.7432,"lat":29.5993},{"place":"Florida\\Santa Rosa","number":28415,"lon":-87.0301,"lat":30.7456},{"place":"Florida\\Sumter","number":315,"lon":-82.0772,"lat":28.6913},{"place":"Florida\\Suwannee","number":17379,"lon":-82.9854,"lat":30.1898},{"place":"Florida\\Volusia","number":86,"lon":-81.1895,"lat":29.0525},{"place":"Florida\\Walton","number":4934,"lon":-86.1718,"lat":30.6722},{"place":"Florida\\Washington","number":3726,"lon":-85.6837,"lat":30.6267},{"place":"Georgia\\Appling","number":22542,"lon":-82.3103,"lat":31.7441},{"place":"Georgia\\Atkinson","number":5593,"lon":-82.9003,"lat":31.278},{"place":"Georgia\\Bacon","number":3242,"lon":-82.48,"lat":31.5432},{"place":"Georgia\\Baker","number":21031,"lon":-84.4653,"lat":31.3102},{"place":"Georgia\\Ben Hill","number":10360,"lon":-83.2547,"lat":31.7606},{"place":"Georgia\\Berrien","number":22195,"lon":-83.2432,"lat":31.267},{"place":"Georgia\\Bleckley","number":4615,"lon":-83.3584,"lat":32.4355},{"place":"Georgia\\Brantley","number":504,"lon":-81.9999,"lat":31.1922},{"place":"Georgia\\Brooks","number":9125,"lon":-83.6001,"lat":30.8379},{"place":"Georgia\\Bulloch","number":22547,"lon":-81.7482,"lat":32.4025},{"place":"Georgia\\Burke","number":19120,"lon":-82.0054,"lat":33.0623},{"place":"Georgia\\Calhoun","number":17123,"lon":-84.642,"lat":31.5161},{"place":"Georgia\\Candler","number":1566,"lon":-82.0876,"lat":32.4052},{"place":"Georgia\\Clay","number":6314,"lon":-84.9907,"lat":31.6152},{"place":"Georgia\\Coffee","number":25424,"lon":-82.8875,"lat":31.5372},{"place":"Georgia\\Colquitt","number":17846,"lon":-83.7903,"lat":31.1719},{"place":"Georgia\\Cook","number":11025,"lon":-83.4467,"lat":31.1489},{"place":"Georgia\\Crisp","number":16694,"lon":-83.8083,"lat":31.9166},{"place":"Georgia\\Decatur","number":34746,"lon":-84.5844,"lat":30.8742},{"place":"Georgia\\Dodge","number":1622,"lon":-83.1974,"lat":32.1692},{"place":"Georgia\\Dooly","number":12946,"lon":-83.8294,"lat":32.1481},{"place":"Georgia\\Dougherty","number":1118,"lon":-84.2358,"lat":31.5184},{"place":"Georgia\\Early","number":28583,"lon":-84.9189,"lat":31.3143},{"place":"Georgia\\Effingham","number":3444,"lon":-81.3402,"lat":32.3718},{"place":"Georgia\\Emanuel","number":13910,"lon":-82.3202,"lat":32.6025},{"place":"Georgia\\Evans","number":1387,"lon":-81.8915,"lat":32.1623},{"place":"Georgia\\Grady","number":7861,"lon":-84.243,"lat":30.8702},{"place":"Georgia\\Houston","number":4213,"lon":-83.6929,"lat":32.4594},{"place":"Georgia\\Irwin","number":29772,"lon":-83.3089,"lat":31.6005},{"place":"Georgia\\Jeff Davis","number":10357,"lon":-82.6531,"lat":31.7954},{"place":"Georgia\\Jefferson","number":11470,"lon":-82.4271,"lat":33.0604},{"place":"Georgia\\Jenkins","number":9976,"lon":-81.9726,"lat":32.7966},{"place":"Georgia\\Johnson","number":1844,"lon":-82.6833,"lat":32.7095},{"place":"Georgia\\Lanier","number":3329,"lon":-83.0618,"lat":31.0185},{"place":"Georgia\\Laurens","number":7710,"lon":-82.9435,"lat":32.4631},{"place":"Georgia\\Lee","number":12201,"lon":-84.1738,"lat":31.7726},{"place":"Georgia\\Lowndes","number":5681,"lon":-83.2788,"lat":30.8281},{"place":"Georgia\\Macon","number":1635,"lon":-84.0575,"lat":32.3458},{"place":"Georgia\\Marion","number":1178,"lon":-84.5339,"lat":32.3456},{"place":"Georgia\\Miller","number":19497,"lon":-84.7424,"lat":31.1539},{"place":"Georgia\\Mitchell","number":30997,"lon":-84.2132,"lat":31.2122},{"place":"Georgia\\Montgomery","number":2586,"lon":-82.5408,"lat":32.1719},{"place":"Georgia\\Peach","number":239,"lon":-83.8337,"lat":32.5743},{"place":"Georgia\\Pierce","number":13019,"lon":-82.238,"lat":31.3539},{"place":"Georgia\\Pulaski","number":7638,"lon":-83.5174,"lat":32.228},{"place":"Georgia\\Randolph","number":17325,"lon":-84.7604,"lat":31.7527},{"place":"Georgia\\Schley","number":161,"lon":-84.3391,"lat":32.2546},{"place":"Georgia\\Screven","number":11977,"lon":-81.6171,"lat":32.7569},{"place":"Georgia\\Seminole","number":17581,"lon":-84.8802,"lat":30.9337},{"place":"Georgia\\Stewart","number":6411,"lon":-84.8507,"lat":32.0706},{"place":"Georgia\\Sumter","number":17318,"lon":-84.2261,"lat":32.0393},{"place":"Georgia\\Tattnall","number":3535,"lon":-82.0706,"lat":32.0455},{"place":"Georgia\\Taylor","number":585,"lon":-84.2487,"lat":32.5512},{"place":"Georgia\\Telfair","number":48,"lon":-82.9638,"lat":31.9214},{"place":"Georgia\\Terrell","number":17092,"lon":-84.4517,"lat":31.7699},{"place":"Georgia\\Thomas","number":10865,"lon":-83.9364,"lat":30.8588},{"place":"Georgia\\Tift","number":12085,"lon":-83.55,"lat":31.4516},{"place":"Georgia\\Toombs","number":3075,"lon":-82.3477,"lat":32.1045},{"place":"Georgia\\Turner","number":11516,"lon":-83.6565,"lat":31.7159},{"place":"Georgia\\Ware","number":2599,"lon":-82.4574,"lat":31.0303},{"place":"Georgia\\Washington","number":6709,"lon":-82.8117,"lat":32.9733},{"place":"Georgia\\Wayne","number":5958,"lon":-81.9308,"lat":31.5523},{"place":"Georgia\\Webster","number":4822,"lon":-84.5743,"lat":32.0391},{"place":"Georgia\\Wilcox","number":21582,"lon":-83.4709,"lat":31.9695},{"place":"Georgia\\Worth","number":40971,"lon":-83.8777,"lat":31.5463},{"place":"Mississippi\\Carroll","number":1143,"lon":-89.923,"lat":33.451},{"place":"Mississippi\\Coahoma","number":4187,"lon":-90.6083,"lat":34.2361},{"place":"Mississippi\\Covington","number":787,"lon":-89.5589,"lat":31.6401},{"place":"Mississippi\\George","number":4176,"lon":-88.6399,"lat":30.8638},{"place":"Mississippi\\Greene","number":5064,"lon":-88.6387,"lat":31.2136},{"place":"Mississippi\\Holmes","number":5152,"lon":-90.0978,"lat":33.1277},{"place":"Mississippi\\Itawamba","number":355,"lon":-88.3613,"lat":34.2781},{"place":"Mississippi\\Lee","number":441,"lon":-88.6776,"lat":34.2842},{"place":"Mississippi\\Leflore","number":1694,"lon":-90.3054,"lat":33.5528},{"place":"Mississippi\\Lowndes","number":1606,"lon":-88.4434,"lat":33.4683},{"place":"Mississippi\\Monroe","number":2663,"lon":-88.4766,"lat":33.8897},{"place":"Mississippi\\Panola","number":1766,"lon":-89.949,"lat":34.3698},{"place":"Mississippi\\Tunica","number":1850,"lon":-90.3677,"lat":34.6485},{"place":"Mississippi\\Yalobusha","number":560,"lon":-89.7041,"lat":34.0298},{"place":"Mississippi\\Yazoo","number":1552,"lon":-90.4039,"lat":32.7874},{"place":"New Mexico\\Lea","number":3112,"lon":-103.4124,"lat":32.7828},{"place":"New Mexico\\Roosevelt","number":3540,"lon":-103.4807,"lat":34.0209},{"place":"North Carolina\\Bertie","number":9444,"lon":-76.9847,"lat":36.0666},{"place":"North Carolina\\Bladen","number":3433,"lon":-78.5518,"lat":34.6139},{"place":"North Carolina\\Brunswick","number":25,"lon":-78.2425,"lat":34.0776},{"place":"North Carolina\\Chowan","number":5720,"lon":-76.5985,"lat":36.1507},{"place":"North Carolina\\Columbus","number":5715,"lon":-78.6345,"lat":34.2652},{"place":"North Carolina\\Craven","number":970,"lon":-77.0981,"lat":35.1335},{"place":"North Carolina\\Duplin","number":5155,"lon":-77.9251,"lat":34.9398},{"place":"North Carolina\\Edgecombe","number":6254,"lon":-77.5995,"lat":35.9086},{"place":"North Carolina\\Gates","number":2352,"lon":-76.6976,"lat":36.4445},{"place":"North Carolina\\Greene","number":1806,"lon":-77.6815,"lat":35.484},{"place":"North Carolina\\Halifax","number":6925,"lon":-77.6432,"lat":36.252},{"place":"North Carolina\\Hertford","number":5024,"lon":-76.9903,"lat":36.3574},{"place":"North Carolina\\Johnston","number":2036,"lon":-78.3682,"lat":35.5152},{"place":"North Carolina\\Jones","number":567,"lon":-77.3749,"lat":35.0324},{"place":"North Carolina\\Lenoir","number":489,"lon":-77.6466,"lat":35.2566},{"place":"North Carolina\\Martin","number":9706,"lon":-77.1019,"lat":35.8397},{"place":"North Carolina\\Nash","number":2814,"lon":-77.9821,"lat":35.9593},{"place":"North Carolina\\Northampton","number":6561,"lon":-77.398,"lat":36.4174},{"place":"North Carolina\\Onslow","number":1251,"lon":-77.4334,"lat":34.7395},{"place":"North Carolina\\Perquimans","number":825,"lon":-76.4411,"lat":36.2099},{"place":"North Carolina\\Pitt","number":9235,"lon":-77.3805,"lat":35.5964},{"place":"North Carolina\\Robeson","number":5517,"lon":-79.085,"lat":34.6334},{"place":"North Carolina\\Sampson","number":3252,"lon":-78.3676,"lat":34.9882},{"place":"North Carolina\\Washington","number":1644,"lon":-76.5774,"lat":35.8175},{"place":"North Carolina\\Wayne","number":4995,"lon":-78.0082,"lat":35.3658},{"place":"North Carolina\\Wilson","number":2476,"lon":-77.9205,"lat":35.7005},{"place":"Oklahoma\\Beckham","number":3507,"lon":-99.6867,"lat":35.2696},{"place":"Oklahoma\\Blaine","number":724,"lon":-98.4244,"lat":35.8688},{"place":"Oklahoma\\Bryan","number":221,"lon":-96.2558,"lat":33.9617},{"place":"Oklahoma\\Caddo","number":7891,"lon":-98.3719,"lat":35.1778},{"place":"Oklahoma\\Coal","number":3,"lon":-96.2861,"lat":34.5953},{"place":"Oklahoma\\Custer","number":1179,"lon":-98.9947,"lat":35.6356},{"place":"Oklahoma\\Greer","number":886,"lon":-99.5593,"lat":34.9428},{"place":"Oklahoma\\Harmon","number":1448,"lon":-99.8463,"lat":34.7474},{"place":"Oklahoma\\Hughes","number":472,"lon":-96.2385,"lat":35.0526},{"place":"Oklahoma\\Kiowa","number":550,"lon":-98.9722,"lat":34.9188},{"place":"Oklahoma\\Love","number":1308,"lon":-97.2338,"lat":33.9506},{"place":"Oklahoma\\Major","number":1672,"lon":-98.5246,"lat":36.3107},{"place":"Oklahoma\\Tillman","number":485,"lon":-98.9212,"lat":34.3753},{"place":"Oklahoma\\Washita","number":594,"lon":-98.9917,"lat":35.2907},{"place":"South Carolina\\Aiken","number":545,"lon":-81.6469,"lat":33.5512},{"place":"South Carolina\\Allendale","number":3046,"lon":-81.3567,"lat":32.9944},{"place":"South Carolina\\Bamberg","number":4486,"lon":-81.0459,"lat":33.2162},{"place":"South Carolina\\Barnwell","number":4844,"lon":-81.4416,"lat":33.2677},{"place":"South Carolina\\Calhoun","number":13126,"lon":-80.7784,"lat":33.6868},{"place":"South Carolina\\Clarendon","number":3798,"lon":-80.2014,"lat":33.6732},{"place":"South Carolina\\Colleton","number":3136,"lon":-80.671,"lat":32.8715},{"place":"South Carolina\\Darlington","number":5407,"lon":-79.9483,"lat":34.3329},{"place":"South Carolina\\Dillon","number":3057,"lon":-79.3626,"lat":34.387},{"place":"South Carolina\\Dorchester","number":2670,"lon":-80.3983,"lat":33.0758},{"place":"South Carolina\\Florence","number":1835,"lon":-79.6887,"lat":34.0241},{"place":"South Carolina\\Hampton","number":5936,"lon":-81.1424,"lat":32.7794},{"place":"South Carolina\\Horry","number":13562,"lon":-78.9857,"lat":33.922},{"place":"South Carolina\\Lee","number":2388,"lon":-80.2488,"lat":34.1652},{"place":"South Carolina\\Lexington","number":656,"lon":-81.2754,"lat":33.9058},{"place":"South Carolina\\Marion","number":5511,"lon":-79.3482,"lat":34.0856},{"place":"South Carolina\\Marlboro","number":5324,"lon":-79.6657,"lat":34.5949},{"place":"South Carolina\\Orangeburg","number":19015,"lon":-80.8,"lat":33.4457},{"place":"South Carolina\\Richland","number":4125,"lon":-80.8982,"lat":34.0255},{"place":"South Carolina\\Sumter","number":912,"lon":-80.3756,"lat":33.9135},{"place":"South Carolina\\Williamsburg","number":2679,"lon":-79.7186,"lat":33.6265},{"place":"Texas\\Andrews","number":1227,"lon":-102.6415,"lat":32.2968},{"place":"Texas\\Armstrong","number":470,"lon":-101.3528,"lat":34.9651},{"place":"Texas\\Atascosa","number":4480,"lon":-98.5293,"lat":28.898},{"place":"Texas\\Bailey","number":2388,"lon":-102.8345,"lat":34.0613},{"place":"Texas\\Cochran","number":12440,"lon":-102.8335,"lat":33.6054},{"place":"Texas\\Collingsworth","number":7183,"lon":-100.2724,"lat":34.9641},{"place":"Texas\\Comanche","number":1106,"lon":-98.5479,"lat":31.9521},{"place":"Texas\\Dawson","number":2545,"lon":-101.9552,"lat":32.7402},{"place":"Texas\\Donley","number":2023,"lon":-100.8119,"lat":34.9648},{"place":"Texas\\Eastland","number":324,"lon":-98.8277,"lat":32.3289},{"place":"Texas\\El Paso","number":14,"lon":-106.2351,"lat":31.7581},{"place":"Texas\\Frio","number":19718,"lon":-99.1131,"lat":28.8656},{"place":"Texas\\Gaines","number":42951,"lon":-102.641,"lat":32.7341},{"place":"Texas\\Hall","number":668,"lon":-100.6794,"lat":34.5314},{"place":"Texas\\Hardeman","number":92,"lon":-99.7385,"lat":34.2987},{"place":"Texas\\Haskell","number":2946,"lon":-99.7288,"lat":33.1728},{"place":"Texas\\Hockley","number":1106,"lon":-102.3311,"lat":33.6123},{"place":"Texas\\Houston","number":3,"lon":-95.4281,"lat":31.333},{"place":"Texas\\Jones","number":22,"lon":-99.8868,"lat":32.7411},{"place":"Texas\\Lamb","number":1611,"lon":-102.338,"lat":34.0662},{"place":"Texas\\Liberty","number":7,"lon":-94.8139,"lat":30.1591},{"place":"Texas\\Lubbock","number":977,"lon":-101.8026,"lat":33.6103},{"place":"Texas\\McLennan","number":30,"lon":-97.2017,"lat":31.5581},{"place":"Texas\\Mason","number":294,"lon":-99.2423,"lat":30.7129},{"place":"Texas\\Medina","number":1336,"lon":-99.1145,"lat":29.3517},{"place":"Texas\\Parmer","number":249,"lon":-102.7853,"lat":34.5195},{"place":"Texas\\Rusk","number":218,"lon":-94.7721,"lat":32.1307},{"place":"Texas\\Terry","number":13678,"lon":-102.3292,"lat":33.1758},{"place":"Texas\\Wilbarger","number":4429,"lon":-99.2371,"lat":34.0802},{"place":"Texas\\Wilson","number":569,"lon":-98.0836,"lat":29.1786},{"place":"Texas\\Yoakum","number":17028,"lon":-102.8306,"lat":33.1686},{"place":"Virginia\\Dinwiddie","number":732,"lon":-77.6278,"lat":37.0811},{"place":"Virginia\\Greensville","number":2208,"lon":-77.5588,"lat":36.6782},{"place":"Virginia\\Isle of Wight","number":2183,"lon":-76.7288,"lat":36.8893},{"place":"Virginia\\Suffolk","number":3963,"lon":-76.6433,"lat":36.6955},{"place":"Virginia\\Southampton","number":7024,"lon":-77.1006,"lat":36.7205},{"place":"Virginia\\Surry","number":1864,"lon":-76.9045,"lat":37.1045},{"place":"Virginia\\Sussex","number":1798,"lon":-77.2605,"lat":36.9235}]
