[{"place":"California\\Colusa","number":6267,"lon":-122.2415,"lat":39.1827},{"place":"California\\Glenn","number":3797,"lon":-122.3913,"lat":39.6051},{"place":"California\\Humboldt","number":6,"lon":-123.8754,"lat":40.7075},{"place":"California\\Sacramento","number":1350,"lon":-121.3375,"lat":38.4514},{"place":"California\\San Diego","number":96,"lon":-116.7202,"lat":33.0401},{"place":"California\\Shasta","number":3,"lon":-122.0548,"lat":40.78},{"place":"California\\Solano","number":8378,"lon":-121.9219,"lat":38.2789},{"place":"California\\Sutter","number":9047,"lon":-121.6902,"lat":39.0345},{"place":"California\\Ventura","number":6,"lon":-119.0715,"lat":34.4901},{"place":"California\\Yolo","number":18075,"lon":-121.9048,"lat":38.6917},{"place":"Colorado\\Adams","number":8420,"lon":-104.3365,"lat":39.8803},{"place":"Colorado\\Arapahoe","number":237,"lon":-104.3394,"lat":39.6527},{"place":"Colorado\\Baca","number":4684,"lon":-102.564,"lat":37.3127},{"place":"Colorado\\Cheyenne","number":6447,"lon":-102.6116,"lat":38.8264},{"place":"Colorado\\Dolores","number":1920,"lon":-108.5002,"lat":37.7555},{"place":"Colorado\\Elbert","number":2466,"lon":-104.1336,"lat":39.2876},{"place":"Colorado\\Kiowa","number":19411,"lon":-102.7448,"lat":38.4221},{"place":"Colorado\\Kit Carson","number":7475,"lon":-102.607,"lat":39.3107},{"place":"Colorado\\Lincoln","number":2980,"lon":-103.515,"lat":38.9902},{"place":"Colorado\\Prowers","number":1704,"lon":-102.3978,"lat":37.9459},{"place":"Colorado\\Sedgwick","number":2616,"lon":-102.359,"lat":40.8778},{"place":"Colorado\\Washington","number":640,"lon":-103.1988,"lat":39.977},{"place":"Colorado\\Weld","number":5937,"lon":-104.3899,"lat":40.5623},{"place":"Colorado\\Yuma","number":2373,"lon":-102.4246,"lat":40.0067},{"place":"Connecticut\\Hartford","number":25,"lon":-72.7322,"lat":41.8049},{"place":"Georgia\\Laurens","number":15,"lon":-82.9435,"lat":32.4631},{"place":"Georgia\\Morgan","number":260,"lon":-83.4974,"lat":33.5872},{"place":"Georgia\\Washington","number":68,"lon":-82.8117,"lat":32.9733},{"place":"Kansas\\Brown","number":500,"lon":-95.5722,"lat":39.8306},{"place":"Kansas\\Cherokee","number":90,"lon":-94.8632,"lat":37.1816},{"place":"Kansas\\Cheyenne","number":3204,"lon":-101.7351,"lat":39.7908},{"place":"Kansas\\Cloud","number":1862,"lon":-97.6492,"lat":39.4653},{"place":"Kansas\\Cowley","number":1533,"lon":-96.8505,"lat":37.2252},{"place":"Kansas\\Decatur","number":538,"lon":-100.4552,"lat":39.7887},{"place":"Kansas\\Dickinson","number":778,"lon":-97.1526,"lat":38.8546},{"place":"Kansas\\Ellis","number":1619,"lon":-99.3177,"lat":38.9124},{"place":"Kansas\\Ellsworth","number":433,"lon":-98.2045,"lat":38.6923},{"place":"Kansas\\Gove","number":1015,"lon":-100.4787,"lat":38.9199},{"place":"Kansas\\Grant","number":2617,"lon":-101.3047,"lat":37.5631},{"place":"Kansas\\Harvey","number":338,"lon":-97.4343,"lat":38.0329},{"place":"Kansas\\Haskell","number":736,"lon":-100.8632,"lat":37.5619},{"place":"Kansas\\Jewell","number":1201,"lon":-98.2215,"lat":39.7823},{"place":"Kansas\\Kearny","number":1483,"lon":-101.3201,"lat":37.9956},{"place":"Kansas\\Lane","number":1216,"lon":-100.4557,"lat":38.4789},{"place":"Kansas\\Lincoln","number":440,"lon":-98.2108,"lat":39.0412},{"place":"Kansas\\Logan","number":1400,"lon":-101.139,"lat":38.923},{"place":"Kansas\\McPherson","number":600,"lon":-97.6521,"lat":38.383},{"place":"Kansas\\Marion","number":868,"lon":-97.1046,"lat":38.3478},{"place":"Kansas\\Marshall","number":310,"lon":-96.5253,"lat":39.7795},{"place":"Kansas\\Mitchell","number":1053,"lon":-98.2086,"lat":39.3866},{"place":"Kansas\\Nemaha","number":168,"lon":-96.0158,"lat":39.7799},{"place":"Kansas\\Neosho","number":149,"lon":-95.3169,"lat":37.5592},{"place":"Kansas\\Osborne","number":722,"lon":-98.761,"lat":39.3454},{"place":"Kansas\\Ottawa","number":1178,"lon":-97.6499,"lat":39.1219},{"place":"Kansas\\Rawlins","number":862,"lon":-101.0696,"lat":39.7945},{"place":"Kansas\\Reno","number":1934,"lon":-98.0845,"lat":37.9456},{"place":"Kansas\\Republic","number":926,"lon":-97.6553,"lat":39.8215},{"place":"Kansas\\Rooks","number":1077,"lon":-99.3194,"lat":39.3507},{"place":"Kansas\\Saline","number":914,"lon":-97.6532,"lat":38.7751},{"place":"Kansas\\Scott","number":514,"lon":-100.9021,"lat":38.4822},{"place":"Kansas\\Seward","number":1960,"lon":-100.8468,"lat":37.195},{"place":"Kansas\\Sheridan","number":2679,"lon":-100.4387,"lat":39.3575},{"place":"Kansas\\Sherman","number":11158,"lon":-101.7182,"lat":39.3559},{"place":"Kansas\\Smith","number":2358,"lon":-98.7879,"lat":39.7829},{"place":"Kansas\\Stanton","number":820,"lon":-101.7849,"lat":37.5614},{"place":"Kansas\\Stevens","number":6056,"lon":-101.3118,"lat":37.196},{"place":"Kansas\\Sumner","number":2813,"lon":-97.4902,"lat":37.224},{"place":"Kansas\\Thomas","number":4276,"lon":-101.0481,"lat":39.3617},{"place":"Kansas\\Wallace","number":2690,"lon":-101.7634,"lat":38.9156},{"place":"Kansas\\Washington","number":960,"lon":-97.0921,"lat":39.7784},{"place":"Kansas\\Wichita","number":540,"lon":-101.3443,"lat":38.4781},{"place":"Kansas\\Woodson","number":850,"lon":-95.7499,"lat":37.8815},{"place":"Kentucky\\Graves","number":15,"lon":-88.6476,"lat":36.7261},{"place":"Maryland\\Wicomico","number":21,"lon":-75.6286,"lat":38.3742},{"place":"Michigan\\Emmet","number":113,"lon":-84.8896,"lat":45.5134},{"place":"Minnesota\\Becker","number":156,"lon":-95.6586,"lat":46.9351},{"place":"Minnesota\\Clay","number":3185,"lon":-96.4735,"lat":46.8935},{"place":"Minnesota\\Grant","number":320,"lon":-96.005,"lat":45.9398},{"place":"Minnesota\\Kittson","number":5428,"lon":-96.7649,"lat":48.7758},{"place":"Minnesota\\Marshall","number":5863,"lon":-96.367,"lat":48.3553},{"place":"Minnesota\\Morrison","number":1108,"lon":-94.2689,"lat":46.0226},{"place":"Minnesota\\Norman","number":2647,"lon":-96.44,"lat":47.327},{"place":"Minnesota\\Otter Tail","number":1774,"lon":-95.6957,"lat":46.4104},{"place":"Minnesota\\Pennington","number":997,"lon":-96.0057,"lat":48.0659},{"place":"Minnesota\\Polk","number":5349,"lon":-96.3927,"lat":47.776},{"place":"Minnesota\\Red Lake","number":380,"lon":-96.0766,"lat":47.8732},{"place":"Minnesota\\Roseau","number":11060,"lon":-95.7866,"lat":48.7733},{"place":"Minnesota\\Todd","number":720,"lon":-94.8946,"lat":46.0781},{"place":"Minnesota\\Traverse","number":2077,"lon":-96.4652,"lat":45.7768},{"place":"Minnesota\\Wadena","number":1075,"lon":-94.9595,"lat":46.589},{"place":"Minnesota\\Wilkin","number":1443,"lon":-96.4568,"lat":46.3647},{"place":"Minnesota\\Yellow Medicine","number":578,"lon":-95.8575,"lat":44.7256},{"place":"Missouri\\Newton","number":226,"lon":-94.3487,"lat":36.918},{"place":"Montana\\Carter","number":1151,"lon":-104.5331,"lat":45.5212},{"place":"Montana\\Gallatin","number":455,"lon":-111.1759,"lat":45.5593},{"place":"Montana\\Wibaux","number":1926,"lon":-104.2429,"lat":46.9648},{"place":"Montana\\Yellowstone","number":1864,"lon":-108.2676,"lat":45.9388},{"place":"Nebraska\\Banner","number":2914,"lon":-103.7052,"lat":41.5495},{"place":"Nebraska\\Box Butte","number":8317,"lon":-103.0763,"lat":42.2199},{"place":"Nebraska\\Cheyenne","number":940,"lon":-102.9866,"lat":41.2178},{"place":"Nebraska\\Dawes","number":825,"lon":-103.1318,"lat":42.7137},{"place":"Nebraska\\Deuel","number":1832,"lon":-102.3331,"lat":41.1108},{"place":"Nebraska\\Dundy","number":930,"lon":-101.6896,"lat":40.1787},{"place":"Nebraska\\Harlan","number":202,"lon":-99.4039,"lat":40.1747},{"place":"Nebraska\\Hitchcock","number":701,"lon":-101.0411,"lat":40.1821},{"place":"Nebraska\\Jefferson","number":234,"lon":-97.1407,"lat":40.1697},{"place":"Nebraska\\Keith","number":200,"lon":-101.6669,"lat":41.1981},{"place":"Nebraska\\Kimball","number":5783,"lon":-103.7138,"lat":41.2004},{"place":"Nebraska\\Perkins","number":5195,"lon":-101.6603,"lat":40.8491},{"place":"Nebraska\\Scotts Bluff","number":1411,"lon":-103.7039,"lat":41.8533},{"place":"Nebraska\\Sheridan","number":5997,"lon":-102.4021,"lat":42.5049},{"place":"New Hampshire\\Strafford","number":30,"lon":-71.031,"lat":43.3034},{"place":"New Mexico\\Sandoval","number":7,"lon":-106.8699,"lat":35.6789},{"place":"New York\\Oneida","number":18,"lon":-75.4463,"lat":43.2436},{"place":"New York\\Ontario","number":63,"lon":-77.2999,"lat":42.8539},{"place":"New York\\Schoharie","number":28,"lon":-74.4427,"lat":42.5867},{"place":"New York\\Steuben","number":80,"lon":-77.3891,"lat":42.2693},{"place":"New York\\Tompkins","number":65,"lon":-76.4715,"lat":42.4579},{"place":"North Carolina\\Halifax","number":12,"lon":-77.6432,"lat":36.252},{"place":"North Carolina\\Harnett","number":132,"lon":-78.8654,"lat":35.3689},{"place":"North Carolina\\Montgomery","number":22,"lon":-79.8964,"lat":35.3388},{"place":"North Carolina\\Rowan","number":143,"lon":-80.5269,"lat":35.6418},{"place":"North Dakota\\Adams","number":20670,"lon":-102.5205,"lat":46.0947},{"place":"North Dakota\\Barnes","number":6069,"lon":-98.066,"lat":46.9327},{"place":"North Dakota\\Benson","number":5757,"lon":-99.3727,"lat":48.0728},{"place":"North Dakota\\Billings","number":7203,"lon":-103.3696,"lat":47.0259},{"place":"North Dakota\\Bottineau","number":80668,"lon":-100.8303,"lat":48.7916},{"place":"North Dakota\\Bowman","number":18382,"lon":-103.5133,"lat":46.1072},{"place":"North Dakota\\Burke","number":5010,"lon":-102.511,"lat":48.7941},{"place":"North Dakota\\Burleigh","number":47068,"lon":-100.4607,"lat":46.979},{"place":"North Dakota\\Cass","number":4456,"lon":-97.2383,"lat":46.9298},{"place":"North Dakota\\Cavalier","number":4336,"lon":-98.4501,"lat":48.7733},{"place":"North Dakota\\Divide","number":2587,"lon":-103.4833,"lat":48.816},{"place":"North Dakota\\Dunn","number":15800,"lon":-102.6109,"lat":47.3565},{"place":"North Dakota\\Eddy","number":1574,"lon":-98.8999,"lat":47.72},{"place":"North Dakota\\Emmons","number":68641,"lon":-100.2259,"lat":46.2823},{"place":"North Dakota\\Foster","number":2457,"lon":-98.8811,"lat":47.4597},{"place":"North Dakota\\Golden Valley","number":9086,"lon":-103.8453,"lat":46.9427},{"place":"North Dakota\\Grand Forks","number":13723,"lon":-97.4469,"lat":47.9202},{"place":"North Dakota\\Grant","number":49929,"lon":-101.6369,"lat":46.3589},{"place":"North Dakota\\Griggs","number":1235,"lon":-98.2257,"lat":47.4562},{"place":"North Dakota\\Hettinger","number":31879,"lon":-102.4524,"lat":46.4311},{"place":"North Dakota\\Kidder","number":18484,"lon":-99.7777,"lat":46.9789},{"place":"North Dakota\\LaMoure","number":1457,"lon":-98.5331,"lat":46.4563},{"place":"North Dakota\\Logan","number":14654,"lon":-99.47,"lat":46.4575},{"place":"North Dakota\\McHenry","number":30997,"lon":-100.6334,"lat":48.2356},{"place":"North Dakota\\McIntosh","number":27531,"lon":-99.4325,"lat":46.1115},{"place":"North Dakota\\McKenzie","number":508,"lon":-103.3918,"lat":47.7401},{"place":"North Dakota\\McLean","number":46431,"lon":-101.3121,"lat":47.6079},{"place":"North Dakota\\Mercer","number":21082,"lon":-101.8278,"lat":47.3056},{"place":"North Dakota\\Morton","number":51053,"lon":-101.2753,"lat":46.7179},{"place":"North Dakota\\Mountrail","number":6356,"lon":-102.35,"lat":48.2028},{"place":"North Dakota\\Nelson","number":2348,"lon":-98.1861,"lat":47.9237},{"place":"North Dakota\\Oliver","number":11358,"lon":-101.3279,"lat":47.115},{"place":"North Dakota\\Pembina","number":3920,"lon":-97.5412,"lat":48.7701},{"place":"North Dakota\\Pierce","number":6126,"lon":-99.9696,"lat":48.2516},{"place":"North Dakota\\Ramsey","number":3740,"lon":-98.7219,"lat":48.2679},{"place":"North Dakota\\Renville","number":35672,"lon":-101.6583,"lat":48.7189},{"place":"North Dakota\\Richland","number":4742,"lon":-96.9399,"lat":46.2675},{"place":"North Dakota\\Rolette","number":8271,"lon":-99.8425,"lat":48.775},{"place":"North Dakota\\Sargent","number":745,"lon":-97.6236,"lat":46.1096},{"place":"North Dakota\\Sheridan","number":21068,"lon":-100.3382,"lat":47.5777},{"place":"North Dakota\\Sioux","number":11564,"lon":-101.034,"lat":46.1108},{"place":"North Dakota\\Slope","number":11836,"lon":-103.4543,"lat":46.4453},{"place":"North Dakota\\Stark","number":32440,"lon":-102.6529,"lat":46.8076},{"place":"North Dakota\\Steele","number":1500,"lon":-97.7116,"lat":47.4515},{"place":"North Dakota\\Stutsman","number":10210,"lon":-98.9582,"lat":46.9804},{"place":"North Dakota\\Towner","number":3404,"lon":-99.2457,"lat":48.6871},{"place":"North Dakota\\Traill","number":2224,"lon":-97.1499,"lat":47.4529},{"place":"North Dakota\\Walsh","number":7268,"lon":-97.7186,"lat":48.3714},{"place":"North Dakota\\Ward","number":40270,"lon":-101.5381,"lat":48.2212},{"place":"North Dakota\\Wells","number":11042,"lon":-99.6635,"lat":47.5901},{"place":"North Dakota\\Williams","number":3838,"lon":-103.4787,"lat":48.3426},{"place":"Ohio\\Union","number":75,"lon":-83.3693,"lat":40.3072},{"place":"Oklahoma\\Texas","number":903,"lon":-101.4778,"lat":36.7451},{"place":"Oregon\\Union","number":780,"lon":-118.0032,"lat":45.3193},{"place":"Pennsylvania\\Berks","number":16,"lon":-75.9272,"lat":40.4192},{"place":"Pennsylvania\\Clearfield","number":40,"lon":-78.4778,"lat":41.0018},{"place":"Pennsylvania\\Indiana","number":4,"lon":-79.0802,"lat":40.6542},{"place":"South Carolina\\Chesterfield","number":30,"lon":-80.1408,"lat":34.6365},{"place":"South Carolina\\Colleton","number":42,"lon":-80.671,"lat":32.8715},{"place":"South Carolina\\Orangeburg","number":28,"lon":-80.8,"lat":33.4457},{"place":"South Carolina\\Williamsburg","number":48,"lon":-79.7186,"lat":33.6265},{"place":"South Dakota\\Beadle","number":6237,"lon":-98.2722,"lat":44.4121},{"place":"South Dakota\\Bennett","number":8328,"lon":-101.6676,"lat":43.191},{"place":"South Dakota\\Brown","number":604,"lon":-98.3511,"lat":45.5883},{"place":"South Dakota\\Brule","number":3841,"lon":-99.0897,"lat":43.7143},{"place":"South Dakota\\Buffalo","number":6301,"lon":-99.2152,"lat":44.0729},{"place":"South Dakota\\Campbell","number":16216,"lon":-100.0453,"lat":45.7681},{"place":"South Dakota\\Charles Mix","number":8064,"lon":-98.5902,"lat":43.2005},{"place":"South Dakota\\Codington","number":742,"lon":-97.1892,"lat":44.9809},{"place":"South Dakota\\Corson","number":45108,"lon":-101.1936,"lat":45.7022},{"place":"South Dakota\\Custer","number":2199,"lon":-103.4543,"lat":43.6716},{"place":"South Dakota\\Day","number":1087,"lon":-97.6046,"lat":45.3666},{"place":"South Dakota\\Dewey","number":26787,"lon":-100.8679,"lat":45.1509},{"place":"South Dakota\\Edmunds","number":10124,"lon":-99.2132,"lat":45.4128},{"place":"South Dakota\\Faulk","number":5802,"lon":-99.1449,"lat":45.065},{"place":"South Dakota\\Gregory","number":1471,"lon":-99.1954,"lat":43.1888},{"place":"South Dakota\\Haakon","number":17904,"lon":-101.5409,"lat":44.2875},{"place":"South Dakota\\Hand","number":28220,"lon":-99.0024,"lat":44.5439},{"place":"South Dakota\\Harding","number":1930,"lon":-103.4904,"lat":45.5758},{"place":"South Dakota\\Hughes","number":39465,"lon":-100.0002,"lat":44.3817},{"place":"South Dakota\\Hyde","number":23880,"lon":-99.487,"lat":44.5439},{"place":"South Dakota\\Jackson","number":7610,"lon":-101.6324,"lat":43.6877},{"place":"South Dakota\\Jerauld","number":12607,"lon":-98.6323,"lat":44.0654},{"place":"South Dakota\\Jones","number":26038,"lon":-100.6923,"lat":43.9539},{"place":"South Dakota\\Lyman","number":46811,"lon":-99.8529,"lat":43.8884},{"place":"South Dakota\\McPherson","number":9205,"lon":-99.2172,"lat":45.7633},{"place":"South Dakota\\Meade","number":9106,"lon":-102.7051,"lat":44.5615},{"place":"South Dakota\\Mellette","number":7797,"lon":-100.7624,"lat":43.5736},{"place":"South Dakota\\Pennington","number":5809,"lon":-102.8294,"lat":43.9965},{"place":"South Dakota\\Perkins","number":23594,"lon":-102.471,"lat":45.4847},{"place":"South Dakota\\Potter","number":53222,"lon":-99.958,"lat":45.058},{"place":"South Dakota\\Sanborn","number":2248,"lon":-98.0867,"lat":44.0242},{"place":"South Dakota\\Shannon","number":8157,"lon":-102.5556,"lat":43.3299},{"place":"South Dakota\\Spink","number":1792,"lon":-98.3433,"lat":44.9332},{"place":"South Dakota\\Stanley","number":15717,"lon":-100.738,"lat":44.4056},{"place":"South Dakota\\Sully","number":92969,"lon":-100.1359,"lat":44.7082},{"place":"South Dakota\\Todd","number":9665,"lon":-100.7223,"lat":43.1878},{"place":"South Dakota\\Tripp","number":7420,"lon":-99.8894,"lat":43.3404},{"place":"South Dakota\\Walworth","number":13377,"lon":-100.03,"lat":45.4245},{"place":"South Dakota\\Ziebach","number":7303,"lon":-101.6656,"lat":44.9757},{"place":"Texas\\Bailey","number":1076,"lon":-102.8345,"lat":34.0613},{"place":"Texas\\Bexar","number":430,"lon":-98.5255,"lat":29.4511},{"place":"Texas\\Bosque","number":530,"lon":-97.6364,"lat":31.9045},{"place":"Texas\\Crosby","number":1749,"lon":-101.2855,"lat":33.6107},{"place":"Texas\\Dallam","number":1224,"lon":-102.6038,"lat":36.2683},{"place":"Texas\\Dawson","number":1202,"lon":-101.9552,"lat":32.7402},{"place":"Texas\\Deaf Smith","number":682,"lon":-102.6073,"lat":34.9593},{"place":"Texas\\Ellis","number":12348,"lon":-96.7967,"lat":32.3477},{"place":"Texas\\Fannin","number":2206,"lon":-96.1111,"lat":33.5968},{"place":"Texas\\Floyd","number":509,"lon":-101.2937,"lat":34.0724},{"place":"Texas\\Hale","number":4856,"lon":-101.8069,"lat":34.0699},{"place":"Texas\\Hidalgo","number":31137,"lon":-98.1863,"lat":26.4031},{"place":"Texas\\Hill","number":4129,"lon":-97.13,"lat":31.994},{"place":"Texas\\Jim Wells","number":6408,"lon":-98.096,"lat":27.7268},{"place":"Texas\\Lamb","number":1303,"lon":-102.338,"lat":34.0662},{"place":"Texas\\Medina","number":2181,"lon":-99.1145,"lat":29.3517},{"place":"Texas\\Mitchell","number":117,"lon":-100.9202,"lat":32.2981},{"place":"Texas\\Navarro","number":677,"lon":-96.4751,"lat":32.0503},{"place":"Texas\\Starr","number":6534,"lon":-98.7448,"lat":26.5692},{"place":"Texas\\Yoakum","number":1860,"lon":-102.8306,"lat":33.1686},{"place":"Vermont\\Grand Isle","number":15,"lon":-73.3029,"lat":44.8036},{"place":"Washington\\Grant","number":1303,"lon":-119.4547,"lat":47.2001},{"place":"Wisconsin\\Dunn","number":346,"lon":-91.902,"lat":44.9525},{"place":"Wisconsin\\Marquette","number":37,"lon":-89.3932,"lat":43.82},{"place":"Wisconsin\\Sawyer","number":101,"lon":-91.1381,"lat":45.8851},{"place":"Wisconsin\\Washburn","number":359,"lon":-91.7942,"lat":45.9024},{"place":"Wyoming\\Laramie","number":2247,"lon":-104.6931,"lat":41.3112},{"place":"Wyoming\\Park","number":1622,"lon":-109.7584,"lat":44.4927}]
